{"type": "FeatureCollection", "features": [{"type": "Feature", "geometry": {"type": "Point", "coordinates": [-87.88141, 30.498]}, "properties": {"key": [1], "site_id": ["01-003-0010"], "State_Code": "1", "County_Code": "3", "Street_Address": "FAIRHOPE HIGH SCHOOL, FAIRHOPE,  ALABAMA", "Count": "156", "Crit_Count": "2", "HAP_Count": "63", "Met_Count": "2"}}, {"type": "Feature", "geometry": {"type": "Point", "coordinates": [-85.80218, 33.28126]}, "properties": {"key": [2], "site_id": ["01-027-0001"], "State_Code": "1", "County_Code": "27", "Street_Address": "ROUTE 1, ASHLAND, AL", "Count": "6", "Crit_Count": "1", "HAP_Count": "0", "Met_Count": "2"}}, {"type": "Feature", "geometry": {"type": "Point", "coordinates": [-87.65056, 34.75878]}, "properties": {"key": [3], "site_id": ["01-033-1002"], "State_Code": "1", "County_Code": "33", "Street_Address": "WILSON DAM RD AND 2ND ST.", "Count": "7", "Crit_Count": "2", "HAP_Count": "0", "Met_Count": "2"}}, {"type": "Feature", "geometry": {"type": "Point", "coordinates": [-85.9683, 34.28763]}, "properties": {"key": [4], "site_id": ["01-049-1003"], "State_Code": "1", "County_Code": "49", "Street_Address": "13112 HWY.68 , CROSSVILLE AL. 35962", "Count": "6", "Crit_Count": "1", "HAP_Count": "0", "Met_Count": "2"}}, {"type": "Feature", "geometry": {"type": "Point", "coordinates": [-85.9698, 34.2888]}, "properties": {"key": [5], "site_id": ["01-049-9991"], "State_Code": "1", "County_Code": "49", "Street_Address": "Sand Mountain Alabama Agricultural Experiment Station, Crossville, AL 35962", "Count": "1", "Crit_Count": "1", "HAP_Count": "0", "Met_Count": "0"}}, {"type": "Feature", "geometry": {"type": "Point", "coordinates": [-86.13659, 32.49857]}, "properties": {"key": [6], "site_id": ["01-051-0001"], "State_Code": "1", "County_Code": "51", "Street_Address": "DEWBERRY TRAIL, ELMORE CO., WETUMPKA,  ALABAMA", "Count": "1", "Crit_Count": "1", "HAP_Count": "0", "Met_Count": "0"}}, {"type": "Feature", "geometry": {"type": "Point", "coordinates": [-85.99107, 33.99375]}, "properties": {"key": [7], "site_id": ["01-055-0010"], "State_Code": "1", "County_Code": "55", "Street_Address": "1001 WALLACE DRIVE, GADSDEN, AL 35902", "Count": "7", "Crit_Count": "1", "HAP_Count": "0", "Met_Count": "2"}}, {"type": "Feature", "geometry": {"type": "Point", "coordinates": [-86.05387, 33.90404]}, "properties": {"key": [8], "site_id": ["01-055-0011"], "State_Code": "1", "County_Code": "55", "Street_Address": "1450 PARKER ANDERSON LANE, SOUTHSIDE, AL 35907", "Count": "1", "Crit_Count": "1", "HAP_Count": "0", "Met_Count": "0"}}, {"type": "Feature", "geometry": {"type": "Point", "coordinates": [-85.39077, 31.22636]}, "properties": {"key": [9], "site_id": ["01-069-0003"], "State_Code": "1", "County_Code": "69", "Street_Address": "126 NORTH ST. ANDREWS STREET (CIVIC CENTER)", "Count": "6", "Crit_Count": "1", "HAP_Count": "0", "Met_Count": "2"}}, {"type": "Feature", "geometry": {"type": "Point", "coordinates": [-85.42312, 31.19066]}, "properties": {"key": [10], "site_id": ["01-069-0004"], "State_Code": "1", "County_Code": "69", "Street_Address": "161 BUFORD LANE", "Count": "1", "Crit_Count": "1", "HAP_Count": "0", "Met_Count": "0"}}, {"type": "Feature", "geometry": {"type": "Point", "coordinates": [-86.815, 33.55306]}, "properties": {"key": [11], "site_id": ["01-073-0023"], "State_Code": "1", "County_Code": "73", "Street_Address": "NO. B&#039;HAM,SOU R.R., 3009 28TH ST. NO.", "Count": "245", "Crit_Count": "8", "HAP_Count": "103", "Met_Count": "11"}}, {"type": "Feature", "geometry": {"type": "Point", "coordinates": [-86.85028, 33.52944]}, "properties": {"key": [12], "site_id": ["01-073-0028"], "State_Code": "1", "County_Code": "73", "Street_Address": "EAST THOMAS, FINLEY, 841 FINLEY AVE. BP.", "Count": "114", "Crit_Count": "2", "HAP_Count": "81", "Met_Count": "0"}}, {"type": "Feature", "geometry": {"type": "Point", "coordinates": [-86.915, 33.48556]}, "properties": {"key": [13], "site_id": ["01-073-1003"], "State_Code": "1", "County_Code": "73", "Street_Address": "FAIRFIELD, PFD, 5229 COURT B", "Count": "5", "Crit_Count": "4", "HAP_Count": "0", "Met_Count": "0"}}, {"type": "Feature", "geometry": {"type": "Point", "coordinates": [-87.00361, 33.33111]}, "properties": {"key": [14], "site_id": ["01-073-1005"], "State_Code": "1", "County_Code": "73", "Street_Address": " ROUTE 8 MCADORY", "Count": "13", "Crit_Count": "3", "HAP_Count": "0", "Met_Count": "2"}}, {"type": "Feature", "geometry": {"type": "Point", "coordinates": [-87.30556, 33.45972]}, "properties": {"key": [15], "site_id": ["01-073-1009"], "State_Code": "1", "County_Code": "73", "Street_Address": "1801 BRUCE SHAW ROAD", "Count": "122", "Crit_Count": "1", "HAP_Count": "81", "Met_Count": "2"}}, {"type": "Feature", "geometry": {"type": "Point", "coordinates": [-86.54917, 33.54528]}, "properties": {"key": [16], "site_id": ["01-073-1010"], "State_Code": "1", "County_Code": "73", "Street_Address": " 201 ASHVILLE ROAD", "Count": "14", "Crit_Count": "3", "HAP_Count": "0", "Met_Count": "2"}}, {"type": "Feature", "geometry": {"type": "Point", "coordinates": [-86.92417, 33.49972]}, "properties": {"key": [17], "site_id": ["01-073-2003"], "State_Code": "1", "County_Code": "73", "Street_Address": "1242 JERSEY ST WYLAM AL", "Count": "63", "Crit_Count": "2", "HAP_Count": "11", "Met_Count": "2"}}, {"type": "Feature", "geometry": {"type": "Point", "coordinates": [-86.81667, 33.38639]}, "properties": {"key": [18], "site_id": ["01-073-2006"], "State_Code": "1", "County_Code": "73", "Street_Address": "3425 TAMASSEE LANE, HOOVER, AL 35226", "Count": "11", "Crit_Count": "1", "HAP_Count": "0", "Met_Count": "2"}}, {"type": "Feature", "geometry": {"type": "Point", "coordinates": [-86.84411, 33.52143]}, "properties": {"key": [19], "site_id": ["01-073-2059"], "State_Code": "1", "County_Code": "73", "Street_Address": "1110 5th Street West Birmingham, AL 35204", "Count": "23", "Crit_Count": "3", "HAP_Count": "0", "Met_Count": "11"}}, {"type": "Feature", "geometry": {"type": "Point", "coordinates": [-86.66917, 33.70472]}, "properties": {"key": [20], "site_id": ["01-073-5002"], "State_Code": "1", "County_Code": "73", "Street_Address": "PINSON, HIGH SCH., BOX 360 HWY 75 NORTH", "Count": "10", "Crit_Count": "0", "HAP_Count": "0", "Met_Count": "2"}}, {"type": "Feature", "geometry": {"type": "Point", "coordinates": [-86.9425, 33.80167]}, "properties": {"key": [21], "site_id": ["01-073-5003"], "State_Code": "1", "County_Code": "73", "Street_Address": "10005 CORNER SCHOOL ROAD", "Count": "11", "Crit_Count": "1", "HAP_Count": "0", "Met_Count": "2"}}, {"type": "Feature", "geometry": {"type": "Point", "coordinates": [-86.8195, 33.55724]}, "properties": {"key": [22], "site_id": ["01-073-5501"], "State_Code": "1", "County_Code": "73", "Street_Address": "2620 35th Ave N", "Count": "109", "Crit_Count": "0", "HAP_Count": "82", "Met_Count": "5"}}, {"type": "Feature", "geometry": {"type": "Point", "coordinates": [-86.8239, 33.5448]}, "properties": {"key": [23], "site_id": ["01-073-5502"], "State_Code": "1", "County_Code": "73", "Street_Address": "2015 26thSt", "Count": "98", "Crit_Count": "0", "HAP_Count": "71", "Met_Count": "5"}}, {"type": "Feature", "geometry": {"type": "Point", "coordinates": [-86.8029, 33.5684]}, "properties": {"key": [24], "site_id": ["01-073-5503"], "State_Code": "1", "County_Code": "73", "Street_Address": "3177 44th Ct N", "Count": "98", "Crit_Count": "0", "HAP_Count": "71", "Met_Count": "5"}}, {"type": "Feature", "geometry": {"type": "Point", "coordinates": [-86.7718, 33.5784]}, "properties": {"key": [25], "site_id": ["01-073-5504"], "State_Code": "1", "County_Code": "73", "Street_Address": "1269 Portland Street", "Count": "109", "Crit_Count": "0", "HAP_Count": "82", "Met_Count": "5"}}, {"type": "Feature", "geometry": {"type": "Point", "coordinates": [-86.80546, 33.55663]}, "properties": {"key": [26], "site_id": ["01-073-5505"], "State_Code": "1", "County_Code": "73", "Street_Address": "3300 Shuttlesworth Dr., Birmingham, AL 35207", "Count": "93", "Crit_Count": "0", "HAP_Count": "71", "Met_Count": "0"}}, {"type": "Feature", "geometry": {"type": "Point", "coordinates": [-86.77389, 33.57833]}, "properties": {"key": [27], "site_id": ["01-073-6002"], "State_Code": "1", "County_Code": "73", "Street_Address": "TARRANT, ELEM. SCH., 1269 PORTLAND STREE", "Count": "3", "Crit_Count": "2", "HAP_Count": "0", "Met_Count": "0"}}, {"type": "Feature", "geometry": {"type": "Point", "coordinates": [-86.79639, 33.56528]}, "properties": {"key": [28], "site_id": ["01-073-6004"], "State_Code": "1", "County_Code": "73", "Street_Address": "4113 SHUTTLESWORTH DRIVE", "Count": "140", "Crit_Count": "4", "HAP_Count": "92", "Met_Count": "2"}}, {"type": "Feature", "geometry": {"type": "Point", "coordinates": [-87.33973, 34.3429]}, "properties": {"key": [29], "site_id": ["01-079-0002"], "State_Code": "1", "County_Code": "79", "Street_Address": "US FOREST SERVICE RANGER STA., (SIPSEY) H&#039;WY 33.", "Count": "65", "Crit_Count": "1", "HAP_Count": "8", "Met_Count": "1"}}, {"type": "Feature", "geometry": {"type": "Point", "coordinates": [-86.61611, 34.78833]}, "properties": {"key": [30], "site_id": ["01-089-0002"], "State_Code": "1", "County_Code": "89", "Street_Address": "5006 PULASKI PIKE", "Count": "1", "Crit_Count": "1", "HAP_Count": "0", "Met_Count": "0"}}, {"type": "Feature", "geometry": {"type": "Point", "coordinates": [-86.58501, 34.72874]}, "properties": {"key": [31], "site_id": ["01-089-0003"], "State_Code": "1", "County_Code": "89", "Street_Address": "MADISON STREET", "Count": "1", "Crit_Count": "1", "HAP_Count": "0", "Met_Count": "0"}}, {"type": "Feature", "geometry": {"type": "Point", "coordinates": [-86.56639, 34.62028]}, "properties": {"key": [32], "site_id": ["01-089-0004"], "State_Code": "1", "County_Code": "89", "Street_Address": "11525 SO PARKWAY", "Count": "1", "Crit_Count": "1", "HAP_Count": "0", "Met_Count": "0"}}, {"type": "Feature", "geometry": {"type": "Point", "coordinates": [-86.58637, 34.68767]}, "properties": {"key": [33], "site_id": ["01-089-0014"], "State_Code": "1", "County_Code": "89", "Street_Address": "2201 AIRPORT ROAD", "Count": "65", "Crit_Count": "3", "HAP_Count": "11", "Met_Count": "2"}}, {"type": "Feature", "geometry": {"type": "Point", "coordinates": [-86.75617, 34.77273]}, "properties": {"key": [34], "site_id": ["01-089-0022"], "State_Code": "1", "County_Code": "89", "Street_Address": "1130 Capshaw Road", "Count": "1", "Crit_Count": "1", "HAP_Count": "0", "Met_Count": "0"}}, {"type": "Feature", "geometry": {"type": "Point", "coordinates": [-88.08753, 30.76994]}, "properties": {"key": [35], "site_id": ["01-097-0003"], "State_Code": "1", "County_Code": "97", "Street_Address": " CHICKASAW, MOBILE CO.,  ALABAMA", "Count": "9", "Crit_Count": "3", "HAP_Count": "0", "Met_Count": "2"}}, {"type": "Feature", "geometry": {"type": "Point", "coordinates": [-88.05895, 30.72051]}, "properties": {"key": [36], "site_id": ["01-097-0016"], "State_Code": "1", "County_Code": "97", "Street_Address": "WKRG XMITTING STN, TELEGRAPH RD.", "Count": "1", "Crit_Count": "1", "HAP_Count": "0", "Met_Count": "0"}}, {"type": "Feature", "geometry": {"type": "Point", "coordinates": [-88.14114, 30.47467]}, "properties": {"key": [37], "site_id": ["01-097-2005"], "State_Code": "1", "County_Code": "97", "Street_Address": "BAY RD. ,MOBILE AL.", "Count": "1", "Crit_Count": "1", "HAP_Count": "0", "Met_Count": "0"}}, {"type": "Feature", "geometry": {"type": "Point", "coordinates": [-86.25637, 32.40712]}, "properties": {"key": [38], "site_id": ["01-101-1002"], "State_Code": "1", "County_Code": "101", "Street_Address": "1350 COLISEUM BLVD, MONTGOMERY, ALABAMA 36110", "Count": "65", "Crit_Count": "3", "HAP_Count": "11", "Met_Count": "2"}}, {"type": "Feature", "geometry": {"type": "Point", "coordinates": [-86.97694, 34.51873]}, "properties": {"key": [39], "site_id": ["01-103-0011"], "State_Code": "1", "County_Code": "103", "Street_Address": "P.O. BOX 2224 WALLACE DEVELOPMENT CENTER. DECATUR, ALABAMA", "Count": "8", "Crit_Count": "2", "HAP_Count": "0", "Met_Count": "2"}}, {"type": "Feature", "geometry": {"type": "Point", "coordinates": [-85.97917, 31.79056]}, "properties": {"key": [40], "site_id": ["01-109-0003"], "State_Code": "1", "County_Code": "109", "Street_Address": "HENDERSON ROAD", "Count": "3", "Crit_Count": "1", "HAP_Count": "1", "Met_Count": "2"}}, {"type": "Feature", "geometry": {"type": "Point", "coordinates": [-84.99911, 32.47678]}, "properties": {"key": [41], "site_id": ["01-113-0001"], "State_Code": "1", "County_Code": "113", "Street_Address": "St. Patrick Catholic Church,  BROAD STREET", "Count": "66", "Crit_Count": "1", "HAP_Count": "11", "Met_Count": "2"}}, {"type": "Feature", "geometry": {"type": "Point", "coordinates": [-85.08384, 32.46797]}, "properties": {"key": [42], "site_id": ["01-113-0002"], "State_Code": "1", "County_Code": "113", "Street_Address": "9 WOODLAND DRIVE (SCHOOL) LADONIA,  AL 36869", "Count": "1", "Crit_Count": "1", "HAP_Count": "0", "Met_Count": "0"}}, {"type": "Feature", "geometry": {"type": "Point", "coordinates": [-86.82509, 33.31732]}, "properties": {"key": [43], "site_id": ["01-117-0004"], "State_Code": "1", "County_Code": "117", "Street_Address": "HELENA, BEARDEN FARM", "Count": "2", "Crit_Count": "1", "HAP_Count": "0", "Met_Count": "0"}}, {"type": "Feature", "geometry": {"type": "Point", "coordinates": [-86.8211, 33.31293]}, "properties": {"key": [44], "site_id": ["01-117-0006"], "State_Code": "1", "County_Code": "117", "Street_Address": "PELHAM HIGH SCHOOL", "Count": "6", "Crit_Count": "1", "HAP_Count": "0", "Met_Count": "2"}}, {"type": "Feature", "geometry": {"type": "Point", "coordinates": [-88.27795, 32.36271]}, "properties": {"key": [45], "site_id": ["01-119-0003"], "State_Code": "1", "County_Code": "119", "Street_Address": "NNE of Ward Post Office, Sumter Co., Alabama", "Count": "2", "Crit_Count": "1", "HAP_Count": "0", "Met_Count": "0"}}, {"type": "Feature", "geometry": {"type": "Point", "coordinates": [-86.34944, 33.27975]}, "properties": {"key": [46], "site_id": ["01-121-0002"], "State_Code": "1", "County_Code": "121", "Street_Address": "300 1ST ST. SOUTHEAST", "Count": "6", "Crit_Count": "1", "HAP_Count": "0", "Met_Count": "2"}}, {"type": "Feature", "geometry": {"type": "Point", "coordinates": [-87.48422, 33.18935]}, "properties": {"key": [47], "site_id": ["01-125-0004"], "State_Code": "1", "County_Code": "125", "Street_Address": "3701 LOOP ROAD EAST", "Count": "7", "Crit_Count": "1", "HAP_Count": "0", "Met_Count": "2"}}, {"type": "Feature", "geometry": {"type": "Point", "coordinates": [-87.45973, 33.0896]}, "properties": {"key": [48], "site_id": ["01-125-0010"], "State_Code": "1", "County_Code": "125", "Street_Address": "11690 SOUTHFORK DR. DUNCANVILLE, AL_35456", "Count": "2", "Crit_Count": "2", "HAP_Count": "0", "Met_Count": "0"}}, {"type": "Feature", "geometry": {"type": "Point", "coordinates": [-160.50833, 55.32467]}, "properties": {"key": [49], "site_id": ["02-013-0002"], "State_Code": "2", "County_Code": "13", "Street_Address": "Simeonof", "Count": "63", "Crit_Count": "1", "HAP_Count": "8", "Met_Count": "1"}}, {"type": "Feature", "geometry": {"type": "Point", "coordinates": [-149.8246, 61.20586]}, "properties": {"key": [50], "site_id": ["02-020-0018"], "State_Code": "2", "County_Code": "20", "Street_Address": "3000 EAST 16TH AVENUE", "Count": "2", "Crit_Count": "2", "HAP_Count": "0", "Met_Count": "0"}}, {"type": "Feature", "geometry": {"type": "Point", "coordinates": [-149.81739, 61.18108]}, "properties": {"key": [51], "site_id": ["02-020-0044"], "State_Code": "2", "County_Code": "20", "Street_Address": "3335 E TUDOR RD ANCHORAGE AK 99508", "Count": "1", "Crit_Count": "1", "HAP_Count": "0", "Met_Count": "0"}}, {"type": "Feature", "geometry": {"type": "Point", "coordinates": [-149.56971, 61.3267]}, "properties": {"key": [52], "site_id": ["02-020-1004"], "State_Code": "2", "County_Code": "20", "Street_Address": "11723 OLD GLENN HIGHWAY", "Count": "2", "Crit_Count": "2", "HAP_Count": "0", "Met_Count": "0"}}, {"type": "Feature", "geometry": {"type": "Point", "coordinates": [-148.96573, 63.72534]}, "properties": {"key": [53], "site_id": ["02-068-0003"], "State_Code": "2", "County_Code": "68", "Street_Address": "DENALI NATIONAL PARK", "Count": "80", "Crit_Count": "2", "HAP_Count": "8", "Met_Count": "10"}}, {"type": "Feature", "geometry": {"type": "Point", "coordinates": [-147.72111, 64.84528]}, "properties": {"key": [54], "site_id": ["02-090-0002"], "State_Code": "2", "County_Code": "90", "Street_Address": "FEDERAL BLDG/2ND & CUSHMAN", "Count": "1", "Crit_Count": "1", "HAP_Count": "0", "Met_Count": "0"}}, {"type": "Feature", "geometry": {"type": "Point", "coordinates": [-147.72246, 64.84067]}, "properties": {"key": [55], "site_id": ["02-090-0010"], "State_Code": "2", "County_Code": "90", "Street_Address": "675 7TH AVENUE, FAIRBANKS", "Count": "69", "Crit_Count": "1", "HAP_Count": "11", "Met_Count": "2"}}, {"type": "Feature", "geometry": {"type": "Point", "coordinates": [-147.34721, 64.75234]}, "properties": {"key": [56], "site_id": ["02-090-0033"], "State_Code": "2", "County_Code": "90", "Street_Address": "250 Snowman Lane", "Count": "9", "Crit_Count": "0", "HAP_Count": "0", "Met_Count": "2"}}, {"type": "Feature", "geometry": {"type": "Point", "coordinates": [-147.72741, 64.84569]}, "properties": {"key": [57], "site_id": ["02-090-0034"], "State_Code": "2", "County_Code": "90", "Street_Address": "809 Pioneer Road", "Count": "77", "Crit_Count": "5", "HAP_Count": "11", "Met_Count": "7"}}, {"type": "Feature", "geometry": {"type": "Point", "coordinates": [-147.3103, 64.76297]}, "properties": {"key": [58], "site_id": ["02-090-0035"], "State_Code": "2", "County_Code": "90", "Street_Address": "3288 Hurst Road, North Pole, Alaska 99705", "Count": "62", "Crit_Count": "1", "HAP_Count": "11", "Met_Count": "2"}}, {"type": "Feature", "geometry": {"type": "Point", "coordinates": [-134.56724, 58.3885]}, "properties": {"key": [59], "site_id": ["02-110-0004"], "State_Code": "2", "County_Code": "110", "Street_Address": "3800 MENDENHALL LOOP ROAD", "Count": "12", "Crit_Count": "2", "HAP_Count": "0", "Met_Count": "2"}}, {"type": "Feature", "geometry": {"type": "Point", "coordinates": [-134.51472, 58.36583]}, "properties": {"key": [60], "site_id": ["02-110-0027"], "State_Code": "2", "County_Code": "110", "Street_Address": "4480 MOUNTAINSIDE DRIVE", "Count": "7", "Crit_Count": "0", "HAP_Count": "0", "Met_Count": "2"}}, {"type": "Feature", "geometry": {"type": "Point", "coordinates": [-151.0693, 60.48917]}, "properties": {"key": [61], "site_id": ["02-122-0008"], "State_Code": "2", "County_Code": "122", "Street_Address": "144 N. Binkley St, Soldotna, AK 99669", "Count": "1", "Crit_Count": "1", "HAP_Count": "0", "Met_Count": "0"}}, {"type": "Feature", "geometry": {"type": "Point", "coordinates": [-152.66109, 59.98267]}, "properties": {"key": [62], "site_id": ["02-122-0009"], "State_Code": "2", "County_Code": "122", "Street_Address": "Tuxedni", "Count": "63", "Crit_Count": "1", "HAP_Count": "8", "Met_Count": "1"}}, {"type": "Feature", "geometry": {"type": "Point", "coordinates": [-149.03166, 61.53416]}, "properties": {"key": [63], "site_id": ["02-170-0008"], "State_Code": "2", "County_Code": "170", "Street_Address": "HARRISON COURT,SITE LOCATED AT END OF CUL-DE-SAC", "Count": "12", "Crit_Count": "2", "HAP_Count": "0", "Met_Count": "2"}}, {"type": "Feature", "geometry": {"type": "Point", "coordinates": [-150.31791, 62.31475]}, "properties": {"key": [64], "site_id": ["02-170-0011"], "State_Code": "2", "County_Code": "170", "Street_Address": "Trapper Creek", "Count": "63", "Crit_Count": "1", "HAP_Count": "8", "Met_Count": "1"}}, {"type": "Feature", "geometry": {"type": "Point", "coordinates": [-149.10622, 61.5989]}, "properties": {"key": [65], "site_id": ["02-170-0012"], "State_Code": "2", "County_Code": "170", "Street_Address": "SOUTH GULKANA STREET", "Count": "12", "Crit_Count": "2", "HAP_Count": "0", "Met_Count": "2"}}, {"type": "Feature", "geometry": {"type": "Point", "coordinates": [-149.45525, 61.5988]}, "properties": {"key": [66], "site_id": ["02-170-0013"], "State_Code": "2", "County_Code": "170", "Street_Address": "100 WEST SWANSON AVENUE", "Count": "12", "Crit_Count": "2", "HAP_Count": "0", "Met_Count": "2"}}, {"type": "Feature", "geometry": {"type": "Point", "coordinates": [-157.87482, 67.09195]}, "properties": {"key": [67], "site_id": ["02-188-9000"], "State_Code": "2", "County_Code": "188", "Street_Address": "Ambler", "Count": "60", "Crit_Count": "0", "HAP_Count": "8", "Met_Count": "1"}}, {"type": "Feature", "geometry": {"type": "Point", "coordinates": [-135.32125, 59.45315]}, "properties": {"key": [68], "site_id": ["02-232-0001"], "State_Code": "2", "County_Code": "232", "Street_Address": "79 STATE ST., SKAGWAY", "Count": "9", "Crit_Count": "0", "HAP_Count": "0", "Met_Count": "2"}}, {"type": "Feature", "geometry": {"type": "Point", "coordinates": [-132.81234, 56.61076]}, "properties": {"key": [69], "site_id": ["02-280-9000"], "State_Code": "2", "County_Code": "280", "Street_Address": "PETERSBURG IMPROVE SITE", "Count": "63", "Crit_Count": "1", "HAP_Count": "8", "Met_Count": "1"}}, {"type": "Feature", "geometry": {"type": "Point", "coordinates": [-151.49188, 66.93093]}, "properties": {"key": [70], "site_id": ["02-290-9000"], "State_Code": "2", "County_Code": "290", "Street_Address": "Bettles Field, AK", "Count": "46", "Crit_Count": "0", "HAP_Count": "8", "Met_Count": "0"}}, {"type": "Feature", "geometry": {"type": "Point", "coordinates": [-109.85801, 34.07339]}, "properties": {"key": [71], "site_id": ["04-001-1003"], "State_Code": "4", "County_Code": "1", "Street_Address": "51 Nasco Avenue", "Count": "1", "Crit_Count": "1", "HAP_Count": "0", "Met_Count": "0"}}, {"type": "Feature", "geometry": {"type": "Point", "coordinates": [-109.07174, 35.74599]}, "properties": {"key": [72], "site_id": ["04-001-1234"], "State_Code": "4", "County_Code": "1", "Street_Address": "ROUTE 12 NORTH, BUILDING F-004-051", "Count": "2", "Crit_Count": "1", "HAP_Count": "0", "Met_Count": "0"}}, {"type": "Feature", "geometry": {"type": "Point", "coordinates": [-109.434, 35.88197]}, "properties": {"key": [73], "site_id": ["04-001-1235"], "State_Code": "4", "County_Code": "1", "Street_Address": "ROUTE 12 NORTH, BUILDING F-004-051, Fort Defiance, AZ", "Count": "1", "Crit_Count": "1", "HAP_Count": "0", "Met_Count": "0"}}, {"type": "Feature", "geometry": {"type": "Point", "coordinates": [-109.44126, 34.05848]}, "properties": {"key": [74], "site_id": ["04-001-8001"], "State_Code": "4", "County_Code": "1", "Street_Address": "Mount Baldy", "Count": "64", "Crit_Count": "1", "HAP_Count": "8", "Met_Count": "1"}}, {"type": "Feature", "geometry": {"type": "Point", "coordinates": [-109.73095, 31.3658]}, "properties": {"key": [75], "site_id": ["04-003-0011"], "State_Code": "4", "County_Code": "3", "Street_Address": "HOUSING AREA, PAUL SPUR", "Count": "1", "Crit_Count": "1", "HAP_Count": "0", "Met_Count": "0"}}, {"type": "Feature", "geometry": {"type": "Point", "coordinates": [-109.53968, 31.3492]}, "properties": {"key": [76], "site_id": ["04-003-1005"], "State_Code": "4", "County_Code": "3", "Street_Address": "1445-1449 15TH STREET", "Count": "67", "Crit_Count": "3", "HAP_Count": "8", "Met_Count": "3"}}, {"type": "Feature", "geometry": {"type": "Point", "coordinates": [-109.46759, 32.11707]}, "properties": {"key": [77], "site_id": ["04-003-8001"], "State_Code": "4", "County_Code": "3", "Street_Address": "CHIRICAHUA NATIONAL MOUMENT", "Count": "71", "Crit_Count": "2", "HAP_Count": "8", "Met_Count": "8"}}, {"type": "Feature", "geometry": {"type": "Point", "coordinates": [-111.65278, 35.20611]}, "properties": {"key": [78], "site_id": ["04-005-1008"], "State_Code": "4", "County_Code": "5", "Street_Address": "755 W BONITO", "Count": "6", "Crit_Count": "3", "HAP_Count": "0", "Met_Count": "2"}}, {"type": "Feature", "geometry": {"type": "Point", "coordinates": [-111.23473, 36.12502]}, "properties": {"key": [79], "site_id": ["04-005-1237"], "State_Code": "4", "County_Code": "5", "Street_Address": "101 Main Street, Tuba City, AZ", "Count": "2", "Crit_Count": "1", "HAP_Count": "0", "Met_Count": "0"}}, {"type": "Feature", "geometry": {"type": "Point", "coordinates": [-112.155, 36.08056]}, "properties": {"key": [80], "site_id": ["04-005-2002"], "State_Code": "4", "County_Code": "5", "Street_Address": "HOPI POINT GRAND CANYON NATIONAL PARK", "Count": "11", "Crit_Count": "0", "HAP_Count": "0", "Met_Count": "0"}}, {"type": "Feature", "geometry": {"type": "Point", "coordinates": [-112.15381, 36.07168]}, "properties": {"key": [81], "site_id": ["04-005-8001"], "State_Code": "4", "County_Code": "5", "Street_Address": "GRAND CANYON NATIONAL PARK, W RIM DRIVE", "Count": "9", "Crit_Count": "1", "HAP_Count": "0", "Met_Count": "8"}}, {"type": "Feature", "geometry": {"type": "Point", "coordinates": [-112.12955, 36.07781]}, "properties": {"key": [82], "site_id": ["04-005-8100"], "State_Code": "4", "County_Code": "5", "Street_Address": "Indian Gardens", "Count": "65", "Crit_Count": "1", "HAP_Count": "8", "Met_Count": "1"}}, {"type": "Feature", "geometry": {"type": "Point", "coordinates": [-111.98485, 35.97312]}, "properties": {"key": [83], "site_id": ["04-005-8102"], "State_Code": "4", "County_Code": "5", "Street_Address": "Hance Camp at Grand Canyon NP", "Count": "65", "Crit_Count": "1", "HAP_Count": "8", "Met_Count": "1"}}, {"type": "Feature", "geometry": {"type": "Point", "coordinates": [-111.96994, 35.14064]}, "properties": {"key": [84], "site_id": ["04-005-8103"], "State_Code": "4", "County_Code": "5", "Street_Address": "Sycamore Canyon", "Count": "65", "Crit_Count": "1", "HAP_Count": "8", "Met_Count": "1"}}, {"type": "Feature", "geometry": {"type": "Point", "coordinates": [-111.32942, 34.22934]}, "properties": {"key": [85], "site_id": ["04-007-0008"], "State_Code": "4", "County_Code": "7", "Street_Address": "204 W AERO DR", "Count": "2", "Crit_Count": "1", "HAP_Count": "0", "Met_Count": "0"}}, {"type": "Feature", "geometry": {"type": "Point", "coordinates": [-110.8589, 33.39914]}, "properties": {"key": [86], "site_id": ["04-007-0009"], "State_Code": "4", "County_Code": "7", "Street_Address": "4030 LINDEN STREET", "Count": "3", "Crit_Count": "2", "HAP_Count": "0", "Met_Count": "0"}}, {"type": "Feature", "geometry": {"type": "Point", "coordinates": [-111.1074, 33.6547]}, "properties": {"key": [87], "site_id": ["04-007-0010"], "State_Code": "4", "County_Code": "7", "Street_Address": "SOUTH OF SR88", "Count": "64", "Crit_Count": "2", "HAP_Count": "8", "Met_Count": "1"}}, {"type": "Feature", "geometry": {"type": "Point", "coordinates": [-110.86727, 33.3855]}, "properties": {"key": [88], "site_id": ["04-007-0011"], "State_Code": "4", "County_Code": "7", "Street_Address": "Cherry Flats Rd.", "Count": "2", "Crit_Count": "1", "HAP_Count": "0", "Met_Count": "0"}}, {"type": "Feature", "geometry": {"type": "Point", "coordinates": [-110.87445, 33.39743]}, "properties": {"key": [89], "site_id": ["04-007-0012"], "State_Code": "4", "County_Code": "7", "Street_Address": "Sullivan ST & Davis Canyon", "Count": "2", "Crit_Count": "1", "HAP_Count": "0", "Met_Count": "0"}}, {"type": "Feature", "geometry": {"type": "Point", "coordinates": [-110.7858, 33.00618]}, "properties": {"key": [90], "site_id": ["04-007-1001"], "State_Code": "4", "County_Code": "7", "Street_Address": "JAIL-CANYON DR, HAYDEN", "Count": "3", "Crit_Count": "2", "HAP_Count": "0", "Met_Count": "0"}}, {"type": "Feature", "geometry": {"type": "Point", "coordinates": [-110.76547, 33.00252]}, "properties": {"key": [91], "site_id": ["04-007-1002"], "State_Code": "4", "County_Code": "7", "Street_Address": "SR 77", "Count": "3", "Crit_Count": "1", "HAP_Count": "1", "Met_Count": "2"}}, {"type": "Feature", "geometry": {"type": "Point", "coordinates": [-110.82967, 33.41902]}, "properties": {"key": [92], "site_id": ["04-007-8000"], "State_Code": "4", "County_Code": "7", "Street_Address": "SR 188 & US 60", "Count": "4", "Crit_Count": "2", "HAP_Count": "1", "Met_Count": "2"}}, {"type": "Feature", "geometry": {"type": "Point", "coordinates": [-110.78485, 33.00241]}, "properties": {"key": [93], "site_id": ["04-007-8020"], "State_Code": "4", "County_Code": "7", "Street_Address": "2nd Street and Garfield Ave", "Count": "1", "Crit_Count": "0", "HAP_Count": "1", "Met_Count": "0"}}, {"type": "Feature", "geometry": {"type": "Point", "coordinates": [-110.77146, 32.99304]}, "properties": {"key": [94], "site_id": ["04-007-8021"], "State_Code": "4", "County_Code": "7", "Street_Address": "824 Thorne Ave", "Count": "1", "Crit_Count": "0", "HAP_Count": "1", "Met_Count": "0"}}, {"type": "Feature", "geometry": {"type": "Point", "coordinates": [-110.9428, 34.09087]}, "properties": {"key": [95], "site_id": ["04-007-8100"], "State_Code": "4", "County_Code": "7", "Street_Address": "Sierra Ancha", "Count": "65", "Crit_Count": "1", "HAP_Count": "8", "Met_Count": "1"}}, {"type": "Feature", "geometry": {"type": "Point", "coordinates": [-113.58, 34.2319]}, "properties": {"key": [96], "site_id": ["04-012-8000"], "State_Code": "4", "County_Code": "12", "Street_Address": "ALAMO LAKE STATE PARK", "Count": "1", "Crit_Count": "1", "HAP_Count": "0", "Met_Count": "0"}}, {"type": "Feature", "geometry": {"type": "Point", "coordinates": [-112.14257, 33.48385]}, "properties": {"key": [97], "site_id": ["04-013-0019"], "State_Code": "4", "County_Code": "13", "Street_Address": "3847 W EARLL DR-WEST PHOENIX STATION", "Count": "12", "Crit_Count": "5", "HAP_Count": "0", "Met_Count": "7"}}, {"type": "Feature", "geometry": {"type": "Point", "coordinates": [-111.86507, 33.41045]}, "properties": {"key": [98], "site_id": ["04-013-1003"], "State_Code": "4", "County_Code": "13", "Street_Address": "310 S BROOKS, MESA", "Count": "10", "Crit_Count": "4", "HAP_Count": "0", "Met_Count": "4"}}, {"type": "Feature", "geometry": {"type": "Point", "coordinates": [-112.06626, 33.56033]}, "properties": {"key": [99], "site_id": ["04-013-1004"], "State_Code": "4", "County_Code": "13", "Street_Address": "601 E BUTLER DR & N 6TH ST,PHOENIX", "Count": "10", "Crit_Count": "4", "HAP_Count": "0", "Met_Count": "5"}}, {"type": "Feature", "geometry": {"type": "Point", "coordinates": [-111.73331, 33.45223]}, "properties": {"key": [100], "site_id": ["04-013-1010"], "State_Code": "4", "County_Code": "13", "Street_Address": "4530 E MCKELLIPS RD-FALCON FIELD STATION", "Count": "5", "Crit_Count": "1", "HAP_Count": "0", "Met_Count": "4"}}, {"type": "Feature", "geometry": {"type": "Point", "coordinates": [-112.19196, 33.57454]}, "properties": {"key": [101], "site_id": ["04-013-2001"], "State_Code": "4", "County_Code": "13", "Street_Address": "6000 W OLIVE AVE,GLENDALE", "Count": "9", "Crit_Count": "4", "HAP_Count": "0", "Met_Count": "4"}}, {"type": "Feature", "geometry": {"type": "Point", "coordinates": [-111.85562, 33.70633]}, "properties": {"key": [102], "site_id": ["04-013-2005"], "State_Code": "4", "County_Code": "13", "Street_Address": "25000 N WINDY WALK-PINNACLE PEAK STATION", "Count": "5", "Crit_Count": "1", "HAP_Count": "0", "Met_Count": "4"}}, {"type": "Feature", "geometry": {"type": "Point", "coordinates": [-112.04601, 33.45793]}, "properties": {"key": [103], "site_id": ["04-013-3002"], "State_Code": "4", "County_Code": "13", "Street_Address": "1645 E ROOSEVELT ST-CENTRAL PHOENIX STN", "Count": "10", "Crit_Count": "5", "HAP_Count": "0", "Met_Count": "4"}}, {"type": "Feature", "geometry": {"type": "Point", "coordinates": [-111.91721, 33.47968]}, "properties": {"key": [104], "site_id": ["04-013-3003"], "State_Code": "4", "County_Code": "13", "Street_Address": "2857 N MILLER RD-S SCOTTSDALE STN", "Count": "7", "Crit_Count": "3", "HAP_Count": "0", "Met_Count": "4"}}, {"type": "Feature", "geometry": {"type": "Point", "coordinates": [-112.11748, 33.46093]}, "properties": {"key": [105], "site_id": ["04-013-3010"], "State_Code": "4", "County_Code": "13", "Street_Address": "1128 N.  27TH AVE-GREENWOOD STATION", "Count": "7", "Crit_Count": "3", "HAP_Count": "0", "Met_Count": "4"}}, {"type": "Feature", "geometry": {"type": "Point", "coordinates": [-112.07533, 33.40316]}, "properties": {"key": [106], "site_id": ["04-013-4003"], "State_Code": "4", "County_Code": "13", "Street_Address": "33 W TAMARISK AVE, PHOENIX", "Count": "71", "Crit_Count": "4", "HAP_Count": "40", "Met_Count": "4"}}, {"type": "Feature", "geometry": {"type": "Point", "coordinates": [-111.88431, 33.29898]}, "properties": {"key": [107], "site_id": ["04-013-4004"], "State_Code": "4", "County_Code": "13", "Street_Address": "275 S ELLIS, CHANDLER", "Count": "7", "Crit_Count": "3", "HAP_Count": "0", "Met_Count": "4"}}, {"type": "Feature", "geometry": {"type": "Point", "coordinates": [-111.93473, 33.4124]}, "properties": {"key": [108], "site_id": ["04-013-4005"], "State_Code": "4", "County_Code": "13", "Street_Address": "1525 S COLLEGE AVE, TEMPE", "Count": "11", "Crit_Count": "4", "HAP_Count": "0", "Met_Count": "5"}}, {"type": "Feature", "geometry": {"type": "Point", "coordinates": [-111.72255, 33.31074]}, "properties": {"key": [109], "site_id": ["04-013-4006"], "State_Code": "4", "County_Code": "13", "Street_Address": "15400 SOUTH HIGLEY ROAD", "Count": "6", "Crit_Count": "1", "HAP_Count": "0", "Met_Count": "5"}}, {"type": "Feature", "geometry": {"type": "Point", "coordinates": [-112.01739, 33.82169]}, "properties": {"key": [110], "site_id": ["04-013-4008"], "State_Code": "4", "County_Code": "13", "Street_Address": "37019 N. LAVA LANE. CAVE CREEK AZ", "Count": "5", "Crit_Count": "1", "HAP_Count": "0", "Met_Count": "4"}}, {"type": "Feature", "geometry": {"type": "Point", "coordinates": [-112.14434, 33.40642]}, "properties": {"key": [111], "site_id": ["04-013-4009"], "State_Code": "4", "County_Code": "13", "Street_Address": "3940 WEST BROADWAY ROAD PHOENIX AZ", "Count": "232", "Crit_Count": "2", "HAP_Count": "72", "Met_Count": "7"}}, {"type": "Feature", "geometry": {"type": "Point", "coordinates": [-112.34184, 33.63713]}, "properties": {"key": [112], "site_id": ["04-013-4010"], "State_Code": "4", "County_Code": "13", "Street_Address": "16825 N. DYSART", "Count": "7", "Crit_Count": "3", "HAP_Count": "0", "Met_Count": "4"}}, {"type": "Feature", "geometry": {"type": "Point", "coordinates": [-112.6207, 33.37005]}, "properties": {"key": [113], "site_id": ["04-013-4011"], "State_Code": "4", "County_Code": "13", "Street_Address": "26453 W. MC85", "Count": "8", "Crit_Count": "4", "HAP_Count": "0", "Met_Count": "4"}}, {"type": "Feature", "geometry": {"type": "Point", "coordinates": [-112.29417, 33.68674]}, "properties": {"key": [114], "site_id": ["04-013-4016"], "State_Code": "4", "County_Code": "13", "Street_Address": "10851 W Williams Rd, Sun City AZ", "Count": "5", "Crit_Count": "1", "HAP_Count": "0", "Met_Count": "4"}}, {"type": "Feature", "geometry": {"type": "Point", "coordinates": [-112.08635, 33.68463]}, "properties": {"key": [115], "site_id": ["04-013-4018"], "State_Code": "4", "County_Code": "13", "Street_Address": "1030 W. Deer Valley Rd", "Count": "5", "Crit_Count": "1", "HAP_Count": "1", "Met_Count": "4"}}, {"type": "Feature", "geometry": {"type": "Point", "coordinates": [-111.96797, 33.39625]}, "properties": {"key": [116], "site_id": ["04-013-4019"], "State_Code": "4", "County_Code": "13", "Street_Address": "1919 W Fairmont Dr., Tempe, AZ", "Count": "2", "Crit_Count": "2", "HAP_Count": "0", "Met_Count": "0"}}, {"type": "Feature", "geometry": {"type": "Point", "coordinates": [-111.67693, 33.62925]}, "properties": {"key": [117], "site_id": ["04-013-5100"], "State_Code": "4", "County_Code": "13", "Street_Address": "18791 Yuma Frank Road, Ft. McDowell, AZ", "Count": "3", "Crit_Count": "2", "HAP_Count": "0", "Met_Count": "0"}}, {"type": "Feature", "geometry": {"type": "Point", "coordinates": [-112.1606, 33.29023]}, "properties": {"key": [118], "site_id": ["04-013-7003"], "State_Code": "4", "County_Code": "13", "Street_Address": "4208 W. PECOS LAVEEN, AZ 85339 (GILA CROSSING NORTH ELEM SCH)", "Count": "60", "Crit_Count": "2", "HAP_Count": "39", "Met_Count": "0"}}, {"type": "Feature", "geometry": {"type": "Point", "coordinates": [-111.85565, 33.48824]}, "properties": {"key": [119], "site_id": ["04-013-7020"], "State_Code": "4", "County_Code": "13", "Street_Address": "10844 EAST OSBORN ROAD SCOTTSDALE AZ 85256", "Count": "11", "Crit_Count": "3", "HAP_Count": "0", "Met_Count": "8"}}, {"type": "Feature", "geometry": {"type": "Point", "coordinates": [-111.75533, 33.50799]}, "properties": {"key": [120], "site_id": ["04-013-7021"], "State_Code": "4", "County_Code": "13", "Street_Address": "15115 BEELINE HIGHWAY, SCOTTSDALE, AZ 86256", "Count": "6", "Crit_Count": "1", "HAP_Count": "0", "Met_Count": "5"}}, {"type": "Feature", "geometry": {"type": "Point", "coordinates": [-111.80577, 33.47461]}, "properties": {"key": [121], "site_id": ["04-013-7022"], "State_Code": "4", "County_Code": "13", "Street_Address": "3250 NORTH STAPLEY DRIVE, MESA, AZ 85203", "Count": "8", "Crit_Count": "2", "HAP_Count": "0", "Met_Count": "6"}}, {"type": "Feature", "geometry": {"type": "Point", "coordinates": [-111.83852, 33.50812]}, "properties": {"key": [122], "site_id": ["04-013-7024"], "State_Code": "4", "County_Code": "13", "Street_Address": "4827 NORTH COUNTRY CLUB DRIVE, SCOTTSDALE, AZ 85256", "Count": "2", "Crit_Count": "2", "HAP_Count": "0", "Met_Count": "0"}}, {"type": "Feature", "geometry": {"type": "Point", "coordinates": [-112.37278, 33.38333]}, "properties": {"key": [123], "site_id": ["04-013-8005"], "State_Code": "4", "County_Code": "13", "Street_Address": "15099 W. CASEY ABBOTT RD", "Count": "1", "Crit_Count": "0", "HAP_Count": "0", "Met_Count": "0"}}, {"type": "Feature", "geometry": {"type": "Point", "coordinates": [-111.7987, 33.9828]}, "properties": {"key": [124], "site_id": ["04-013-9508"], "State_Code": "4", "County_Code": "13", "Street_Address": "7 SPRINGS RD-FAA RADAR STN-TONTO NF", "Count": "1", "Crit_Count": "1", "HAP_Count": "0", "Met_Count": "0"}}, {"type": "Feature", "geometry": {"type": "Point", "coordinates": [-111.60925, 33.54549]}, "properties": {"key": [125], "site_id": ["04-013-9702"], "State_Code": "4", "County_Code": "13", "Street_Address": "USERY PASS RD/BUSH HWY", "Count": "5", "Crit_Count": "1", "HAP_Count": "0", "Met_Count": "4"}}, {"type": "Feature", "geometry": {"type": "Point", "coordinates": [-111.67183, 33.71881]}, "properties": {"key": [126], "site_id": ["04-013-9706"], "State_Code": "4", "County_Code": "13", "Street_Address": "25608 N FOREST RD.,RIO VERDE,AZ", "Count": "1", "Crit_Count": "1", "HAP_Count": "0", "Met_Count": "0"}}, {"type": "Feature", "geometry": {"type": "Point", "coordinates": [-112.11814, 33.4265]}, "properties": {"key": [127], "site_id": ["04-013-9812"], "State_Code": "4", "County_Code": "13", "Street_Address": "2702 AC ESTER BROOK BLVD", "Count": "10", "Crit_Count": "3", "HAP_Count": "0", "Met_Count": "4"}}, {"type": "Feature", "geometry": {"type": "Point", "coordinates": [-112.09577, 33.50383]}, "properties": {"key": [128], "site_id": ["04-013-9997"], "State_Code": "4", "County_Code": "13", "Street_Address": "4530 N 17TH AVENUE", "Count": "298", "Crit_Count": "7", "HAP_Count": "98", "Met_Count": "6"}}, {"type": "Feature", "geometry": {"type": "Point", "coordinates": [-111.99611, 33.45528]}, "properties": {"key": [129], "site_id": ["04-013-9998"], "State_Code": "4", "County_Code": "13", "Street_Address": "600 N 40TH ST & FILLMORE ST,PHOENIX", "Count": "2", "Crit_Count": "0", "HAP_Count": "0", "Met_Count": "2"}}, {"type": "Feature", "geometry": {"type": "Point", "coordinates": [-113.41078, 35.54002]}, "properties": {"key": [130], "site_id": ["04-015-1000"], "State_Code": "4", "County_Code": "15", "Street_Address": "DIAMOND CREEK ROAD & U S ROUTE 66", "Count": "11", "Crit_Count": "2", "HAP_Count": "0", "Met_Count": "9"}}, {"type": "Feature", "geometry": {"type": "Point", "coordinates": [-114.56611, 35.15389]}, "properties": {"key": [131], "site_id": ["04-015-1003"], "State_Code": "4", "County_Code": "15", "Street_Address": "BULLHEAD CITY 990 HWY 95", "Count": "2", "Crit_Count": "1", "HAP_Count": "0", "Met_Count": "0"}}, {"type": "Feature", "geometry": {"type": "Point", "coordinates": [-113.48902, 35.58873]}, "properties": {"key": [132], "site_id": ["04-015-1011"], "State_Code": "4", "County_Code": "15", "Street_Address": "Grand Canyon west", "Count": "53", "Crit_Count": "1", "HAP_Count": "12", "Met_Count": "6"}}, {"type": "Feature", "geometry": {"type": "Point", "coordinates": [-113.37236, 34.55199]}, "properties": {"key": [133], "site_id": ["04-015-1111"], "State_Code": "4", "County_Code": "15", "Street_Address": "East of Big Sandy wash", "Count": "54", "Crit_Count": "0", "HAP_Count": "12", "Met_Count": "8"}}, {"type": "Feature", "geometry": {"type": "Point", "coordinates": [-114.0692, 36.0193]}, "properties": {"key": [134], "site_id": ["04-015-9000"], "State_Code": "4", "County_Code": "15", "Street_Address": "Meadview", "Count": "63", "Crit_Count": "1", "HAP_Count": "8", "Met_Count": "1"}}, {"type": "Feature", "geometry": {"type": "Point", "coordinates": [-109.89194, 34.8225]}, "properties": {"key": [135], "site_id": ["04-017-0119"], "State_Code": "4", "County_Code": "17", "Street_Address": "PET FOR NAT PARK, NEAR OLD SW ENTERANCE ON OLD ROUTE 180", "Count": "71", "Crit_Count": "2", "HAP_Count": "8", "Met_Count": "8"}}, {"type": "Feature", "geometry": {"type": "Point", "coordinates": [-109.97029, 33.85815]}, "properties": {"key": [136], "site_id": ["04-017-1002"], "State_Code": "4", "County_Code": "17", "Street_Address": "612 South Chief Avenue", "Count": "1", "Crit_Count": "1", "HAP_Count": "0", "Met_Count": "0"}}, {"type": "Feature", "geometry": {"type": "Point", "coordinates": [-112.85745, 32.38204]}, "properties": {"key": [137], "site_id": ["04-019-0001"], "State_Code": "4", "County_Code": "19", "Street_Address": "AZ HWY DEPT YARD-WELL RD, AJO", "Count": "1", "Crit_Count": "1", "HAP_Count": "0", "Met_Count": "0"}}, {"type": "Feature", "geometry": {"type": "Point", "coordinates": [-112.801, 31.95]}, "properties": {"key": [138], "site_id": ["04-019-0005"], "State_Code": "4", "County_Code": "19", "Street_Address": "VISITORS CENTER, ORGAN PIPE CACTUS NM", "Count": "63", "Crit_Count": "1", "HAP_Count": "8", "Met_Count": "1"}}, {"type": "Feature", "geometry": {"type": "Point", "coordinates": [-110.79259, 32.00471]}, "properties": {"key": [139], "site_id": ["04-019-0008"], "State_Code": "4", "County_Code": "19", "Street_Address": "22000 S HOUGHTON RD, CORONA DE TUCSON", "Count": "1", "Crit_Count": "1", "HAP_Count": "0", "Met_Count": "0"}}, {"type": "Feature", "geometry": {"type": "Point", "coordinates": [-111.03839, 32.32266]}, "properties": {"key": [140], "site_id": ["04-019-0011"], "State_Code": "4", "County_Code": "19", "Street_Address": "3401 W ORANGE GROVE RD, TUCSON", "Count": "4", "Crit_Count": "2", "HAP_Count": "0", "Met_Count": "2"}}, {"type": "Feature", "geometry": {"type": "Point", "coordinates": [-111.15454, 32.41434]}, "properties": {"key": [141], "site_id": ["04-019-0020"], "State_Code": "4", "County_Code": "19", "Street_Address": "8840 W ROBINSON STREET, RILLITO", "Count": "2", "Crit_Count": "1", "HAP_Count": "0", "Met_Count": "0"}}, {"type": "Feature", "geometry": {"type": "Point", "coordinates": [-110.73712, 32.17454]}, "properties": {"key": [142], "site_id": ["04-019-0021"], "State_Code": "4", "County_Code": "19", "Street_Address": "3905 S. OLD SPANISH TRAIL, SAGUARO PARK EAST", "Count": "70", "Crit_Count": "2", "HAP_Count": "8", "Met_Count": "7"}}, {"type": "Feature", "geometry": {"type": "Point", "coordinates": [-110.96791, 32.20198]}, "properties": {"key": [143], "site_id": ["04-019-1001"], "State_Code": "4", "County_Code": "19", "Street_Address": "1601 S 6TH AVE, SOUTH TUCSON", "Count": "1", "Crit_Count": "1", "HAP_Count": "0", "Met_Count": "0"}}, {"type": "Feature", "geometry": {"type": "Point", "coordinates": [-110.98908, 32.27229]}, "properties": {"key": [144], "site_id": ["04-019-1009"], "State_Code": "4", "County_Code": "19", "Street_Address": "1016 W PRINCE RD, TUCSON", "Count": "1", "Crit_Count": "1", "HAP_Count": "0", "Met_Count": "0"}}, {"type": "Feature", "geometry": {"type": "Point", "coordinates": [-110.87807, 32.20441]}, "properties": {"key": [145], "site_id": ["04-019-1011"], "State_Code": "4", "County_Code": "19", "Street_Address": "1237 S. BEVERLY , TUCSON", "Count": "12", "Crit_Count": "3", "HAP_Count": "0", "Met_Count": "7"}}, {"type": "Feature", "geometry": {"type": "Point", "coordinates": [-110.91062, 32.20739]}, "properties": {"key": [146], "site_id": ["04-019-1014"], "State_Code": "4", "County_Code": "19", "Street_Address": "22ND & ALVERNON, TUCSON", "Count": "6", "Crit_Count": "1", "HAP_Count": "0", "Met_Count": "5"}}, {"type": "Feature", "geometry": {"type": "Point", "coordinates": [-111.06352, 32.42526]}, "properties": {"key": [147], "site_id": ["04-019-1018"], "State_Code": "4", "County_Code": "19", "Street_Address": "12101 N CAMINO DE OESTE, TUCSON", "Count": "7", "Crit_Count": "2", "HAP_Count": "0", "Met_Count": "5"}}, {"type": "Feature", "geometry": {"type": "Point", "coordinates": [-110.77436, 32.04767]}, "properties": {"key": [148], "site_id": ["04-019-1020"], "State_Code": "4", "County_Code": "19", "Street_Address": "11330 S HOUGHTON, TUCSON", "Count": "6", "Crit_Count": "1", "HAP_Count": "0", "Met_Count": "5"}}, {"type": "Feature", "geometry": {"type": "Point", "coordinates": [-110.77389, 32.0475]}, "properties": {"key": [149], "site_id": ["04-019-1021"], "State_Code": "4", "County_Code": "19", "Street_Address": "2745 N CHERRY, TUCSON", "Count": "4", "Crit_Count": "1", "HAP_Count": "0", "Met_Count": "3"}}, {"type": "Feature", "geometry": {"type": "Point", "coordinates": [-110.98256, 32.12592]}, "properties": {"key": [150], "site_id": ["04-019-1026"], "State_Code": "4", "County_Code": "19", "Street_Address": "6910 SOUTH SANTA CLARA AVE", "Count": "1", "Crit_Count": "1", "HAP_Count": "0", "Met_Count": "0"}}, {"type": "Feature", "geometry": {"type": "Point", "coordinates": [-110.9823, 32.29515]}, "properties": {"key": [151], "site_id": ["04-019-1028"], "State_Code": "4", "County_Code": "19", "Street_Address": "400 W RIVER ROAD", "Count": "81", "Crit_Count": "6", "HAP_Count": "12", "Met_Count": "8"}}, {"type": "Feature", "geometry": {"type": "Point", "coordinates": [-110.99644, 31.87952]}, "properties": {"key": [152], "site_id": ["04-019-1030"], "State_Code": "4", "County_Code": "19", "Street_Address": "601 NORTH LA CANADA DRIVE", "Count": "8", "Crit_Count": "2", "HAP_Count": "0", "Met_Count": "5"}}, {"type": "Feature", "geometry": {"type": "Point", "coordinates": [-110.84058, 32.1912]}, "properties": {"key": [153], "site_id": ["04-019-1031"], "State_Code": "4", "County_Code": "19", "Street_Address": "2601 SOUTH KOLB ROAD", "Count": "7", "Crit_Count": "1", "HAP_Count": "0", "Met_Count": "6"}}, {"type": "Feature", "geometry": {"type": "Point", "coordinates": [-110.98011, 32.173]}, "properties": {"key": [154], "site_id": ["04-019-1032"], "State_Code": "4", "County_Code": "19", "Street_Address": "710 W. MICHIGAN ST.", "Count": "6", "Crit_Count": "1", "HAP_Count": "0", "Met_Count": "4"}}, {"type": "Feature", "geometry": {"type": "Point", "coordinates": [-111.12716, 32.38082]}, "properties": {"key": [155], "site_id": ["04-019-1034"], "State_Code": "4", "County_Code": "19", "Street_Address": "9597 N. COACHLINE BLVD", "Count": "6", "Crit_Count": "1", "HAP_Count": "0", "Met_Count": "4"}}, {"type": "Feature", "geometry": {"type": "Point", "coordinates": [-110.96529, 32.25184]}, "properties": {"key": [156], "site_id": ["04-019-1113"], "State_Code": "4", "County_Code": "19", "Street_Address": "2498 N. GERONIMO", "Count": "2", "Crit_Count": "1", "HAP_Count": "0", "Met_Count": "0"}}, {"type": "Feature", "geometry": {"type": "Point", "coordinates": [-111.21849, 32.24871]}, "properties": {"key": [157], "site_id": ["04-019-9000"], "State_Code": "4", "County_Code": "19", "Street_Address": "Saguaro West", "Count": "63", "Crit_Count": "1", "HAP_Count": "8", "Met_Count": "1"}}, {"type": "Feature", "geometry": {"type": "Point", "coordinates": [-111.75222, 32.87758]}, "properties": {"key": [158], "site_id": ["04-021-0001"], "State_Code": "4", "County_Code": "21", "Street_Address": "401 N MARSHALL ST, CASA GRANDE", "Count": "4", "Crit_Count": "2", "HAP_Count": "0", "Met_Count": "2"}}, {"type": "Feature", "geometry": {"type": "Point", "coordinates": [-111.5436, 33.4214]}, "properties": {"key": [159], "site_id": ["04-021-3001"], "State_Code": "4", "County_Code": "21", "Street_Address": "305 E. SUPERSTITION BLVD, APACHE JUNCTION", "Count": "1", "Crit_Count": "1", "HAP_Count": "0", "Met_Count": "0"}}, {"type": "Feature", "geometry": {"type": "Point", "coordinates": [-111.50322, 33.42119]}, "properties": {"key": [160], "site_id": ["04-021-3002"], "State_Code": "4", "County_Code": "21", "Street_Address": "3955 E SUPERSTITION BLVD, APACHE JUNCTION", "Count": "4", "Crit_Count": "2", "HAP_Count": "0", "Met_Count": "2"}}, {"type": "Feature", "geometry": {"type": "Point", "coordinates": [-111.76225, 32.95436]}, "properties": {"key": [161], "site_id": ["04-021-3003"], "State_Code": "4", "County_Code": "21", "Street_Address": "660 W. AERO DR. CASA GRANDE", "Count": "1", "Crit_Count": "1", "HAP_Count": "0", "Met_Count": "0"}}, {"type": "Feature", "geometry": {"type": "Point", "coordinates": [-111.51483, 32.97856]}, "properties": {"key": [162], "site_id": ["04-021-3004"], "State_Code": "4", "County_Code": "21", "Street_Address": "212 E BROADWAY COOLIDGE", "Count": "1", "Crit_Count": "1", "HAP_Count": "0", "Met_Count": "0"}}, {"type": "Feature", "geometry": {"type": "Point", "coordinates": [-111.30806, 32.50831]}, "properties": {"key": [163], "site_id": ["04-021-3007"], "State_Code": "4", "County_Code": "21", "Street_Address": "WATER WELL #2 PINAL AIR PARK RD MARANA", "Count": "2", "Crit_Count": "2", "HAP_Count": "0", "Met_Count": "0"}}, {"type": "Feature", "geometry": {"type": "Point", "coordinates": [-111.962, 32.88119]}, "properties": {"key": [164], "site_id": ["04-021-3008"], "State_Code": "4", "County_Code": "21", "Street_Address": "36697 W PAPAGO DR STANFIELD", "Count": "1", "Crit_Count": "1", "HAP_Count": "0", "Met_Count": "0"}}, {"type": "Feature", "geometry": {"type": "Point", "coordinates": [-111.56111, 33.21911]}, "properties": {"key": [165], "site_id": ["04-021-3009"], "State_Code": "4", "County_Code": "21", "Street_Address": "301 E COMBS RD QUEEN CREEK", "Count": "1", "Crit_Count": "1", "HAP_Count": "0", "Met_Count": "0"}}, {"type": "Feature", "geometry": {"type": "Point", "coordinates": [-112.04722, 33.0585]}, "properties": {"key": [166], "site_id": ["04-021-3010"], "State_Code": "4", "County_Code": "21", "Street_Address": "44625 W GARVEY RD MARICOPA", "Count": "1", "Crit_Count": "1", "HAP_Count": "0", "Met_Count": "0"}}, {"type": "Feature", "geometry": {"type": "Point", "coordinates": [-111.5705, 32.89106]}, "properties": {"key": [167], "site_id": ["04-021-3011"], "State_Code": "4", "County_Code": "21", "Street_Address": "970 N ELEVEN MILE CORNER RD CASA GRANDE", "Count": "1", "Crit_Count": "1", "HAP_Count": "0", "Met_Count": "0"}}, {"type": "Feature", "geometry": {"type": "Point", "coordinates": [-111.97205, 33.01053]}, "properties": {"key": [168], "site_id": ["04-021-3013"], "State_Code": "4", "County_Code": "21", "Street_Address": "37580 W. MARICOPA-CASA GRANDE HIGHWAY", "Count": "4", "Crit_Count": "2", "HAP_Count": "0", "Met_Count": "2"}}, {"type": "Feature", "geometry": {"type": "Point", "coordinates": [-111.55486, 32.75764]}, "properties": {"key": [169], "site_id": ["04-021-3014"], "State_Code": "4", "County_Code": "21", "Street_Address": "801 N. MAIN ST", "Count": "1", "Crit_Count": "1", "HAP_Count": "0", "Met_Count": "0"}}, {"type": "Feature", "geometry": {"type": "Point", "coordinates": [-111.74, 33.08009]}, "properties": {"key": [170], "site_id": ["04-021-7001"], "State_Code": "4", "County_Code": "21", "Street_Address": "35 PIMA STREET, SACATON", "Count": "2", "Crit_Count": "2", "HAP_Count": "0", "Met_Count": "0"}}, {"type": "Feature", "geometry": {"type": "Point", "coordinates": [-111.88581, 33.11756]}, "properties": {"key": [171], "site_id": ["04-021-7004"], "State_Code": "4", "County_Code": "21", "Street_Address": "CASA BLANCA/PRESCHOOL ROAD, BAPCHULE, AZ 85221", "Count": "1", "Crit_Count": "1", "HAP_Count": "0", "Met_Count": "0"}}, {"type": "Feature", "geometry": {"type": "Point", "coordinates": [-112.07811, 33.03104]}, "properties": {"key": [172], "site_id": ["04-021-7030"], "State_Code": "4", "County_Code": "21", "Street_Address": "47685 W. Eco-Museum Rd Maricopa, AZ 85139", "Count": "7", "Crit_Count": "2", "HAP_Count": "0", "Met_Count": "4"}}, {"type": "Feature", "geometry": {"type": "Point", "coordinates": [-111.28559, 33.29346]}, "properties": {"key": [173], "site_id": ["04-021-8001"], "State_Code": "4", "County_Code": "21", "Street_Address": "10 S QUEEN ANN  QUEEN VALLEY", "Count": "152", "Crit_Count": "2", "HAP_Count": "18", "Met_Count": "4"}}, {"type": "Feature", "geometry": {"type": "Point", "coordinates": [-110.93672, 31.3372]}, "properties": {"key": [174], "site_id": ["04-023-0004"], "State_Code": "4", "County_Code": "23", "Street_Address": "300 N MORLEY AVE", "Count": "5", "Crit_Count": "2", "HAP_Count": "0", "Met_Count": "2"}}, {"type": "Feature", "geometry": {"type": "Point", "coordinates": [-112.96194, 34.42888]}, "properties": {"key": [175], "site_id": ["04-025-0005"], "State_Code": "4", "County_Code": "25", "Street_Address": "REPEATER STATION NEAR HILLSIDE", "Count": "61", "Crit_Count": "1", "HAP_Count": "8", "Met_Count": "1"}}, {"type": "Feature", "geometry": {"type": "Point", "coordinates": [-112.331, 34.595]}, "properties": {"key": [176], "site_id": ["04-025-2002"], "State_Code": "4", "County_Code": "25", "Street_Address": "7501 E. CIVIC CIRCLE, PRESCOTT VALLEY", "Count": "5", "Crit_Count": "2", "HAP_Count": "0", "Met_Count": "2"}}, {"type": "Feature", "geometry": {"type": "Point", "coordinates": [-112.4761, 34.5467]}, "properties": {"key": [177], "site_id": ["04-025-8033"], "State_Code": "4", "County_Code": "25", "Street_Address": "330 Grove Avenue", "Count": "1", "Crit_Count": "1", "HAP_Count": "0", "Met_Count": "0"}}, {"type": "Feature", "geometry": {"type": "Point", "coordinates": [-111.68392, 34.34056]}, "properties": {"key": [178], "site_id": ["04-025-8104"], "State_Code": "4", "County_Code": "25", "Street_Address": "Ike&#039;s Backbone", "Count": "64", "Crit_Count": "1", "HAP_Count": "8", "Met_Count": "1"}}, {"type": "Feature", "geometry": {"type": "Point", "coordinates": [-114.61444, 32.69028]}, "properties": {"key": [179], "site_id": ["04-027-8011"], "State_Code": "4", "County_Code": "27", "Street_Address": "2323 S ARIZONA AVE", "Count": "5", "Crit_Count": "3", "HAP_Count": "0", "Met_Count": "2"}}, {"type": "Feature", "geometry": {"type": "Point", "coordinates": [-91.55896, 34.51852]}, "properties": {"key": [180], "site_id": ["05-001-0011"], "State_Code": "5", "County_Code": "1", "Street_Address": "1703 N BEURKLE - HWY 63", "Count": "10", "Crit_Count": "1", "HAP_Count": "0", "Met_Count": "2"}}, {"type": "Feature", "geometry": {"type": "Point", "coordinates": [-91.95038, 33.13686]}, "properties": {"key": [181], "site_id": ["05-003-0005"], "State_Code": "5", "County_Code": "3", "Street_Address": "1015 UNITY ROAD", "Count": "10", "Crit_Count": "1", "HAP_Count": "0", "Met_Count": "2"}}, {"type": "Feature", "geometry": {"type": "Point", "coordinates": [-93.0988, 34.1795]}, "properties": {"key": [182], "site_id": ["05-019-9991"], "State_Code": "5", "County_Code": "19", "Street_Address": "Lower Lake Recreation Area, Caddo Valley, AR 71923", "Count": "1", "Crit_Count": "1", "HAP_Count": "0", "Met_Count": "0"}}, {"type": "Feature", "geometry": {"type": "Point", "coordinates": [-90.19314, 35.19729]}, "properties": {"key": [183], "site_id": ["05-035-0005"], "State_Code": "5", "County_Code": "35", "Street_Address": "LH POLK AND COLONIAL DRIVE", "Count": "16", "Crit_Count": "3", "HAP_Count": "0", "Met_Count": "2"}}, {"type": "Feature", "geometry": {"type": "Point", "coordinates": [-93.00018, 34.46944]}, "properties": {"key": [184], "site_id": ["05-051-0003"], "State_Code": "5", "County_Code": "51", "Street_Address": "300 WERNER ST.", "Count": "10", "Crit_Count": "1", "HAP_Count": "0", "Met_Count": "2"}}, {"type": "Feature", "geometry": {"type": "Point", "coordinates": [-91.18951, 35.63817]}, "properties": {"key": [185], "site_id": ["05-067-0001"], "State_Code": "5", "County_Code": "67", "Street_Address": "7648 VICTORY BLVD", "Count": "10", "Crit_Count": "1", "HAP_Count": "0", "Met_Count": "2"}}, {"type": "Feature", "geometry": {"type": "Point", "coordinates": [-93.20826, 35.83273]}, "properties": {"key": [186], "site_id": ["05-101-0002"], "State_Code": "5", "County_Code": "101", "Street_Address": "HWY 16", "Count": "1", "Crit_Count": "1", "HAP_Count": "0", "Met_Count": "0"}}, {"type": "Feature", "geometry": {"type": "Point", "coordinates": [-93.20319, 35.82589]}, "properties": {"key": [187], "site_id": ["05-101-9000"], "State_Code": "5", "County_Code": "101", "Street_Address": "Upper Buffalo Wilderness", "Count": "65", "Crit_Count": "1", "HAP_Count": "8", "Met_Count": "1"}}, {"type": "Feature", "geometry": {"type": "Point", "coordinates": [-94.22623, 34.5837]}, "properties": {"key": [188], "site_id": ["05-113-0002"], "State_Code": "5", "County_Code": "113", "Street_Address": "HORNBECK ROAD - MENA", "Count": "10", "Crit_Count": "1", "HAP_Count": "0", "Met_Count": "2"}}, {"type": "Feature", "geometry": {"type": "Point", "coordinates": [-94.14332, 34.45441]}, "properties": {"key": [189], "site_id": ["05-113-0003"], "State_Code": "5", "County_Code": "113", "Street_Address": "463 POLK 631", "Count": "64", "Crit_Count": "2", "HAP_Count": "8", "Met_Count": "1"}}, {"type": "Feature", "geometry": {"type": "Point", "coordinates": [-92.2813, 34.75619]}, "properties": {"key": [190], "site_id": ["05-119-0007"], "State_Code": "5", "County_Code": "119", "Street_Address": "PIKE AVE AT RIVER ROAD", "Count": "86", "Crit_Count": "7", "HAP_Count": "12", "Met_Count": "8"}}, {"type": "Feature", "geometry": {"type": "Point", "coordinates": [-92.26058, 34.83572]}, "properties": {"key": [191], "site_id": ["05-119-1002"], "State_Code": "5", "County_Code": "119", "Street_Address": "REMOUNT ROAD N. LITTLE ROCK, ARKANSAS", "Count": "1", "Crit_Count": "1", "HAP_Count": "0", "Met_Count": "0"}}, {"type": "Feature", "geometry": {"type": "Point", "coordinates": [-92.24359, 34.7296]}, "properties": {"key": [192], "site_id": ["05-119-1004"], "State_Code": "5", "County_Code": "119", "Street_Address": "1701 S. BOND ST.", "Count": "10", "Crit_Count": "1", "HAP_Count": "0", "Met_Count": "2"}}, {"type": "Feature", "geometry": {"type": "Point", "coordinates": [-92.32006, 34.74493]}, "properties": {"key": [193], "site_id": ["05-119-1007"], "State_Code": "5", "County_Code": "119", "Street_Address": "4300 BLOCK OF WEST 7TH ST", "Count": "2", "Crit_Count": "1", "HAP_Count": "0", "Met_Count": "0"}}, {"type": "Feature", "geometry": {"type": "Point", "coordinates": [-92.3287, 34.68134]}, "properties": {"key": [194], "site_id": ["05-119-1008"], "State_Code": "5", "County_Code": "119", "Street_Address": "DOYLE SPRINGS ROAD", "Count": "8", "Crit_Count": "2", "HAP_Count": "0", "Met_Count": "2"}}, {"type": "Feature", "geometry": {"type": "Point", "coordinates": [-92.755, 34.48917]}, "properties": {"key": [195], "site_id": ["05-119-5001"], "State_Code": "5", "County_Code": "119", "Street_Address": "Marshall Road", "Count": "2", "Crit_Count": "0", "HAP_Count": "2", "Met_Count": "0"}}, {"type": "Feature", "geometry": {"type": "Point", "coordinates": [-92.66962, 33.22027]}, "properties": {"key": [196], "site_id": ["05-139-0006"], "State_Code": "5", "County_Code": "139", "Street_Address": "UNION MEMORIAL HOSPITAL, ELDORADO", "Count": "13", "Crit_Count": "2", "HAP_Count": "0", "Met_Count": "2"}}, {"type": "Feature", "geometry": {"type": "Point", "coordinates": [-94.11683, 36.1797]}, "properties": {"key": [197], "site_id": ["05-143-0005"], "State_Code": "5", "County_Code": "143", "Street_Address": "600 SOUTH OLD MISSOURI ROAD", "Count": "8", "Crit_Count": "2", "HAP_Count": "0", "Met_Count": "2"}}, {"type": "Feature", "geometry": {"type": "Point", "coordinates": [-94.16744, 36.0117]}, "properties": {"key": [198], "site_id": ["05-143-0006"], "State_Code": "5", "County_Code": "143", "Street_Address": "429 Ernest Lancaster Dr.", "Count": "1", "Crit_Count": "1", "HAP_Count": "0", "Met_Count": "0"}}, {"type": "Feature", "geometry": {"type": "Point", "coordinates": [-121.78422, 37.68753]}, "properties": {"key": [199], "site_id": ["06-001-0007"], "State_Code": "6", "County_Code": "1", "Street_Address": "793 RINCON AVE.", "Count": "150", "Crit_Count": "3", "HAP_Count": "34", "Met_Count": "0"}}, {"type": "Feature", "geometry": {"type": "Point", "coordinates": [-122.16993, 37.74307]}, "properties": {"key": [200], "site_id": ["06-001-0009"], "State_Code": "6", "County_Code": "1", "Street_Address": "9925 International Blvd", "Count": "29", "Crit_Count": "4", "HAP_Count": "18", "Met_Count": "0"}}, {"type": "Feature", "geometry": {"type": "Point", "coordinates": [-122.28235, 37.81478]}, "properties": {"key": [201], "site_id": ["06-001-0011"], "State_Code": "6", "County_Code": "1", "Street_Address": "1100 21st Street", "Count": "102", "Crit_Count": "5", "HAP_Count": "30", "Met_Count": "0"}}, {"type": "Feature", "geometry": {"type": "Point", "coordinates": [-122.26338, 37.79362]}, "properties": {"key": [202], "site_id": ["06-001-0012"], "State_Code": "6", "County_Code": "1", "Street_Address": "Laney College Eighth St. parking lot Aisle J", "Count": "29", "Crit_Count": "3", "HAP_Count": "18", "Met_Count": "0"}}, {"type": "Feature", "geometry": {"type": "Point", "coordinates": [-122.03155, 37.65446]}, "properties": {"key": [203], "site_id": ["06-001-2001"], "State_Code": "6", "County_Code": "1", "Street_Address": "3466 LA MESA DR.", "Count": "1", "Crit_Count": "1", "HAP_Count": "0", "Met_Count": "0"}}, {"type": "Feature", "geometry": {"type": "Point", "coordinates": [-121.63192, 37.68962]}, "properties": {"key": [204], "site_id": ["06-001-2005"], "State_Code": "6", "County_Code": "1", "Street_Address": "13224 Patterson Pass Road", "Count": "59", "Crit_Count": "1", "HAP_Count": "9", "Met_Count": "0"}}, {"type": "Feature", "geometry": {"type": "Point", "coordinates": [-120.76351, 38.33991]}, "properties": {"key": [205], "site_id": ["06-005-0002"], "State_Code": "6", "County_Code": "5", "Street_Address": " 201 CLINTON ROAD, JACKSON, CA 95642", "Count": "5", "Crit_Count": "1", "HAP_Count": "0", "Met_Count": "4"}}, {"type": "Feature", "geometry": {"type": "Point", "coordinates": [-121.66667, 39.31667]}, "properties": {"key": [206], "site_id": ["06-007-0004"], "State_Code": "6", "County_Code": "7", "Street_Address": "608 COWEE AVENUE", "Count": "3", "Crit_Count": "0", "HAP_Count": "0", "Met_Count": "1"}}, {"type": "Feature", "geometry": {"type": "Point", "coordinates": [-121.60639, 39.77667]}, "properties": {"key": [207], "site_id": ["06-007-0006"], "State_Code": "6", "County_Code": "7", "Street_Address": "8186 SKYWAY BL, PARADISE", "Count": "3", "Crit_Count": "0", "HAP_Count": "0", "Met_Count": "3"}}, {"type": "Feature", "geometry": {"type": "Point", "coordinates": [-121.61884, 39.71404]}, "properties": {"key": [208], "site_id": ["06-007-0007"], "State_Code": "6", "County_Code": "7", "Street_Address": "4405 AIRPORT RD-PARADISE CA", "Count": "5", "Crit_Count": "1", "HAP_Count": "0", "Met_Count": "4"}}, {"type": "Feature", "geometry": {"type": "Point", "coordinates": [-121.84162, 39.76154]}, "properties": {"key": [209], "site_id": ["06-007-0008"], "State_Code": "6", "County_Code": "7", "Street_Address": "984 East Avenue, CHICO", "Count": "119", "Crit_Count": "6", "HAP_Count": "41", "Met_Count": "5"}}, {"type": "Feature", "geometry": {"type": "Point", "coordinates": [-121.59172, 39.77876]}, "properties": {"key": [210], "site_id": ["06-007-2002"], "State_Code": "6", "County_Code": "7", "Street_Address": "6701 CLARK ROAD, PARADISE", "Count": "1", "Crit_Count": "0", "HAP_Count": "0", "Met_Count": "0"}}, {"type": "Feature", "geometry": {"type": "Point", "coordinates": [-121.66881, 39.32756]}, "properties": {"key": [211], "site_id": ["06-007-4001"], "State_Code": "6", "County_Code": "7", "Street_Address": "608 COWEE AVE, GRIDLEY", "Count": "5", "Crit_Count": "0", "HAP_Count": "0", "Met_Count": "4"}}, {"type": "Feature", "geometry": {"type": "Point", "coordinates": [-120.68157, 38.20185]}, "properties": {"key": [212], "site_id": ["06-009-0001"], "State_Code": "6", "County_Code": "9", "Street_Address": "501 GOLD STRIKE ROAD, SAN ANDREAS", "Count": "8", "Crit_Count": "3", "HAP_Count": "0", "Met_Count": "4"}}, {"type": "Feature", "geometry": {"type": "Point", "coordinates": [-122.2818, 39.02122]}, "properties": {"key": [213], "site_id": ["06-011-0007"], "State_Code": "6", "County_Code": "11", "Street_Address": "CORTINA INDIAN RANCHERIA, SPRING VALLEY RD, WILLIAMS", "Count": "1", "Crit_Count": "1", "HAP_Count": "0", "Met_Count": "0"}}, {"type": "Feature", "geometry": {"type": "Point", "coordinates": [-122.01773, 39.20293]}, "properties": {"key": [214], "site_id": ["06-011-1002"], "State_Code": "6", "County_Code": "11", "Street_Address": "100 SUNRISE BLVD., COLUSA", "Count": "19", "Crit_Count": "3", "HAP_Count": "0", "Met_Count": "7"}}, {"type": "Feature", "geometry": {"type": "Point", "coordinates": [-122.02615, 37.93601]}, "properties": {"key": [215], "site_id": ["06-013-0002"], "State_Code": "6", "County_Code": "13", "Street_Address": "2956-A TREAT BOULEVARD", "Count": "38", "Crit_Count": "6", "HAP_Count": "18", "Met_Count": "0"}}, {"type": "Feature", "geometry": {"type": "Point", "coordinates": [-122.38556, 37.92616]}, "properties": {"key": [216], "site_id": ["06-013-0005"], "State_Code": "6", "County_Code": "13", "Street_Address": "140 WEST RICHMOND AVENUE", "Count": "1", "Crit_Count": "0", "HAP_Count": "0", "Met_Count": "0"}}, {"type": "Feature", "geometry": {"type": "Point", "coordinates": [-122.36485, 37.94817]}, "properties": {"key": [217], "site_id": ["06-013-0006"], "State_Code": "6", "County_Code": "13", "Street_Address": "1065 7TH ST., RICHMOND", "Count": "26", "Crit_Count": "1", "HAP_Count": "18", "Met_Count": "0"}}, {"type": "Feature", "geometry": {"type": "Point", "coordinates": [-122.27034, 38.03433]}, "properties": {"key": [218], "site_id": ["06-013-0007"], "State_Code": "6", "County_Code": "13", "Street_Address": "326 THIRD STREET, Rodeo", "Count": "1", "Crit_Count": "0", "HAP_Count": "0", "Met_Count": "0"}}, {"type": "Feature", "geometry": {"type": "Point", "coordinates": [-122.23323, 38.05492]}, "properties": {"key": [219], "site_id": ["06-013-1001"], "State_Code": "6", "County_Code": "13", "Street_Address": "KENDALL AVE,Crockett", "Count": "25", "Crit_Count": "1", "HAP_Count": "18", "Met_Count": "0"}}, {"type": "Feature", "geometry": {"type": "Point", "coordinates": [-121.64192, 38.00631]}, "properties": {"key": [220], "site_id": ["06-013-1002"], "State_Code": "6", "County_Code": "13", "Street_Address": "5551 BETHEL ISLAND RD", "Count": "37", "Crit_Count": "5", "HAP_Count": "18", "Met_Count": "0"}}, {"type": "Feature", "geometry": {"type": "Point", "coordinates": [-122.35681, 37.9604]}, "properties": {"key": [221], "site_id": ["06-013-1004"], "State_Code": "6", "County_Code": "13", "Street_Address": "1865 D RUMRILL BLVD, San Pablo", "Count": "38", "Crit_Count": "6", "HAP_Count": "18", "Met_Count": "0"}}, {"type": "Feature", "geometry": {"type": "Point", "coordinates": [-122.13447, 38.01282]}, "properties": {"key": [222], "site_id": ["06-013-2001"], "State_Code": "6", "County_Code": "13", "Street_Address": "521 JONES ST, Martinez", "Count": "25", "Crit_Count": "1", "HAP_Count": "18", "Met_Count": "0"}}, {"type": "Feature", "geometry": {"type": "Point", "coordinates": [-121.93419, 37.74365]}, "properties": {"key": [223], "site_id": ["06-013-2007"], "State_Code": "6", "County_Code": "13", "Street_Address": "9885 Alcosta BLVD", "Count": "60", "Crit_Count": "2", "HAP_Count": "9", "Met_Count": "0"}}, {"type": "Feature", "geometry": {"type": "Point", "coordinates": [-124.08278, 41.56111]}, "properties": {"key": [224], "site_id": ["06-015-0002"], "State_Code": "6", "County_Code": "15", "Street_Address": "N OF KLAMATH RIVER, REDWOOD NP", "Count": "63", "Crit_Count": "1", "HAP_Count": "8", "Met_Count": "1"}}, {"type": "Feature", "geometry": {"type": "Point", "coordinates": [-123.97806, 41.84528]}, "properties": {"key": [225], "site_id": ["06-015-0003"], "State_Code": "6", "County_Code": "15", "Street_Address": "AIRPORT-HWY 199, GASQUET", "Count": "1", "Crit_Count": "0", "HAP_Count": "0", "Met_Count": "0"}}, {"type": "Feature", "geometry": {"type": "Point", "coordinates": [-123.99628, 41.5138]}, "properties": {"key": [226], "site_id": ["06-015-2003"], "State_Code": "6", "County_Code": "15", "Street_Address": "Corner of Terwer rd. and Maple road", "Count": "6", "Crit_Count": "0", "HAP_Count": "0", "Met_Count": "5"}}, {"type": "Feature", "geometry": {"type": "Point", "coordinates": [-120.82192, 38.72528]}, "properties": {"key": [227], "site_id": ["06-017-0010"], "State_Code": "6", "County_Code": "17", "Street_Address": " 3111 GOLD NUGGET WAY, PLACERVILLE, CA", "Count": "4", "Crit_Count": "1", "HAP_Count": "0", "Met_Count": "3"}}, {"type": "Feature", "geometry": {"type": "Point", "coordinates": [-119.97061, 38.94498]}, "properties": {"key": [228], "site_id": ["06-017-0011"], "State_Code": "6", "County_Code": "17", "Street_Address": " 3337 SANDY WAY, SOUTH LAKE TAHOE, CA", "Count": "4", "Crit_Count": "0", "HAP_Count": "0", "Met_Count": "3"}}, {"type": "Feature", "geometry": {"type": "Point", "coordinates": [-120.03308, 38.81161]}, "properties": {"key": [229], "site_id": ["06-017-0012"], "State_Code": "6", "County_Code": "17", "Street_Address": "21200 HWY 50 -LITTLE NORWAY/ECHO SUMMIT", "Count": "5", "Crit_Count": "1", "HAP_Count": "0", "Met_Count": "4"}}, {"type": "Feature", "geometry": {"type": "Point", "coordinates": [-121.00337, 38.89094]}, "properties": {"key": [230], "site_id": ["06-017-0020"], "State_Code": "6", "County_Code": "17", "Street_Address": "1400 AMERICAN RIVER TRAIL, COOL", "Count": "4", "Crit_Count": "1", "HAP_Count": "0", "Met_Count": "3"}}, {"type": "Feature", "geometry": {"type": "Point", "coordinates": [-120.10351, 38.976]}, "properties": {"key": [231], "site_id": ["06-017-9000"], "State_Code": "6", "County_Code": "17", "Street_Address": "Bliss SP (TRPA);", "Count": "65", "Crit_Count": "1", "HAP_Count": "8", "Met_Count": "1"}}, {"type": "Feature", "geometry": {"type": "Point", "coordinates": [-119.74197, 36.70551]}, "properties": {"key": [232], "site_id": ["06-019-0007"], "State_Code": "6", "County_Code": "19", "Street_Address": "4706 E. DRUMMOND ST., FRESNO", "Count": "14", "Crit_Count": "4", "HAP_Count": "0", "Met_Count": "6"}}, {"type": "Feature", "geometry": {"type": "Point", "coordinates": [-119.77319, 36.78133]}, "properties": {"key": [233], "site_id": ["06-019-0008"], "State_Code": "6", "County_Code": "19", "Street_Address": "3425 N FIRST ST, FRESNO", "Count": "92", "Crit_Count": "0", "HAP_Count": "11", "Met_Count": "3"}}, {"type": "Feature", "geometry": {"type": "Point", "coordinates": [-119.77417, 36.78532]}, "properties": {"key": [234], "site_id": ["06-019-0011"], "State_Code": "6", "County_Code": "19", "Street_Address": "3727 N FIRST ST, FRESNO", "Count": "128", "Crit_Count": "7", "HAP_Count": "42", "Met_Count": "9"}}, {"type": "Feature", "geometry": {"type": "Point", "coordinates": [-119.87444, 36.84139]}, "properties": {"key": [235], "site_id": ["06-019-0242"], "State_Code": "6", "County_Code": "19", "Street_Address": "SIERRA SKYPARK#2-BLYTHE & CHNNLT, FRESNO", "Count": "10", "Crit_Count": "3", "HAP_Count": "0", "Met_Count": "5"}}, {"type": "Feature", "geometry": {"type": "Point", "coordinates": [-120.1011, 36.19867]}, "properties": {"key": [236], "site_id": ["06-019-2008"], "State_Code": "6", "County_Code": "19", "Street_Address": "16875 4th Street Huron, CA 93234", "Count": "2", "Crit_Count": "0", "HAP_Count": "0", "Met_Count": "1"}}, {"type": "Feature", "geometry": {"type": "Point", "coordinates": [-120.38233, 36.63423]}, "properties": {"key": [237], "site_id": ["06-019-2009"], "State_Code": "6", "County_Code": "19", "Street_Address": "32650 West Adams Avenue Tranquillity CA 93668", "Count": "8", "Crit_Count": "2", "HAP_Count": "0", "Met_Count": "6"}}, {"type": "Feature", "geometry": {"type": "Point", "coordinates": [-119.50361, 36.5975]}, "properties": {"key": [238], "site_id": ["06-019-4001"], "State_Code": "6", "County_Code": "19", "Street_Address": "9240 S. RIVERBEND, PARLIER 93648", "Count": "91", "Crit_Count": "2", "HAP_Count": "10", "Met_Count": "10"}}, {"type": "Feature", "geometry": {"type": "Point", "coordinates": [-119.71736, 36.81911]}, "properties": {"key": [239], "site_id": ["06-019-5001"], "State_Code": "6", "County_Code": "19", "Street_Address": "908 N VILLA AVE, CLOVIS", "Count": "113", "Crit_Count": "5", "HAP_Count": "16", "Met_Count": "10"}}, {"type": "Feature", "geometry": {"type": "Point", "coordinates": [-119.733, 36.72639]}, "properties": {"key": [240], "site_id": ["06-019-5025"], "State_Code": "6", "County_Code": "19", "Street_Address": "1716 WINERY, FRESNO CA 93726", "Count": "10", "Crit_Count": "1", "HAP_Count": "0", "Met_Count": "2"}}, {"type": "Feature", "geometry": {"type": "Point", "coordinates": [-119.15556, 37.22064]}, "properties": {"key": [241], "site_id": ["06-019-9000"], "State_Code": "6", "County_Code": "19", "Street_Address": "Kaiser", "Count": "65", "Crit_Count": "1", "HAP_Count": "8", "Met_Count": "1"}}, {"type": "Feature", "geometry": {"type": "Point", "coordinates": [-122.1919, 39.53376]}, "properties": {"key": [242], "site_id": ["06-021-0003"], "State_Code": "6", "County_Code": "21", "Street_Address": "720 N COLUSA STREET, WILLOWS", "Count": "7", "Crit_Count": "1", "HAP_Count": "0", "Met_Count": "5"}}, {"type": "Feature", "geometry": {"type": "Point", "coordinates": [-123.67523, 41.04712]}, "properties": {"key": [243], "site_id": ["06-023-0006"], "State_Code": "6", "County_Code": "23", "Street_Address": "1 Cannery Road Hoopa California 95546", "Count": "1", "Crit_Count": "1", "HAP_Count": "0", "Met_Count": "0"}}, {"type": "Feature", "geometry": {"type": "Point", "coordinates": [-124.1775, 40.77694]}, "properties": {"key": [244], "site_id": ["06-023-1004"], "State_Code": "6", "County_Code": "23", "Street_Address": "717 SOUTH AVENUE", "Count": "7", "Crit_Count": "5", "HAP_Count": "0", "Met_Count": "2"}}, {"type": "Feature", "geometry": {"type": "Point", "coordinates": [-124.20139, 40.71528]}, "properties": {"key": [245], "site_id": ["06-023-1005"], "State_Code": "6", "County_Code": "23", "Street_Address": "170 meters SE of Donna Dr. & Humboldt Hill Rd., Eureka, CA", "Count": "7", "Crit_Count": "5", "HAP_Count": "0", "Met_Count": "2"}}, {"type": "Feature", "geometry": {"type": "Point", "coordinates": [-123.857, 41.289]}, "properties": {"key": [246], "site_id": ["06-023-2001"], "State_Code": "6", "County_Code": "23", "Street_Address": "MOUNTAIN ROAD OFF HIGHWAY 169 22", "Count": "10", "Crit_Count": "0", "HAP_Count": "0", "Met_Count": "10"}}, {"type": "Feature", "geometry": {"type": "Point", "coordinates": [-123.69028, 41.19194]}, "properties": {"key": [247], "site_id": ["06-023-2002"], "State_Code": "6", "County_Code": "23", "Street_Address": "END OF WEITCHPEC SCHOOL ROAD", "Count": "6", "Crit_Count": "0", "HAP_Count": "0", "Met_Count": "5"}}, {"type": "Feature", "geometry": {"type": "Point", "coordinates": [-123.99843, 40.88364]}, "properties": {"key": [248], "site_id": ["06-023-7001"], "State_Code": "6", "County_Code": "23", "Street_Address": "428 CHARTIN ROAD", "Count": "9", "Crit_Count": "0", "HAP_Count": "0", "Met_Count": "8"}}, {"type": "Feature", "geometry": {"type": "Point", "coordinates": [-115.50306, 32.67389]}, "properties": {"key": [249], "site_id": ["06-025-0004"], "State_Code": "6", "County_Code": "25", "Street_Address": "900 GRANT STREET, CALEXICO, CA", "Count": "5", "Crit_Count": "0", "HAP_Count": "0", "Met_Count": "3"}}, {"type": "Feature", "geometry": {"type": "Point", "coordinates": [-115.48414, 32.67619]}, "properties": {"key": [250], "site_id": ["06-025-0005"], "State_Code": "6", "County_Code": "25", "Street_Address": "1029 ETHEL ST, CALEXICO HIGH SCHOOL", "Count": "129", "Crit_Count": "8", "HAP_Count": "42", "Met_Count": "6"}}, {"type": "Feature", "geometry": {"type": "Point", "coordinates": [-115.53917, 32.97833]}, "properties": {"key": [251], "site_id": ["06-025-0007"], "State_Code": "6", "County_Code": "25", "Street_Address": "220 MAIN ST., STE 204, BRAWLEY", "Count": "13", "Crit_Count": "2", "HAP_Count": "0", "Met_Count": "3"}}, {"type": "Feature", "geometry": {"type": "Point", "coordinates": [-115.56306, 32.79222]}, "properties": {"key": [252], "site_id": ["06-025-1003"], "State_Code": "6", "County_Code": "25", "Street_Address": "150 9TH ST., EL CENTRO", "Count": "20", "Crit_Count": "5", "HAP_Count": "0", "Met_Count": "5"}}, {"type": "Feature", "geometry": {"type": "Point", "coordinates": [-115.62361, 33.0325]}, "properties": {"key": [253], "site_id": ["06-025-4003"], "State_Code": "6", "County_Code": "25", "Street_Address": "202 W FIRST STREET, WESTMORLAND", "Count": "6", "Crit_Count": "2", "HAP_Count": "0", "Met_Count": "3"}}, {"type": "Feature", "geometry": {"type": "Point", "coordinates": [-115.54528, 33.21361]}, "properties": {"key": [254], "site_id": ["06-025-4004"], "State_Code": "6", "County_Code": "25", "Street_Address": "7711 ENGLISH ROAD, NILAND", "Count": "6", "Crit_Count": "2", "HAP_Count": "0", "Met_Count": "3"}}, {"type": "Feature", "geometry": {"type": "Point", "coordinates": [-118.33078, 37.36068]}, "properties": {"key": [255], "site_id": ["06-027-0002"], "State_Code": "6", "County_Code": "27", "Street_Address": "3000 E. LINE ST., BISHOP, CA. 93514", "Count": "6", "Crit_Count": "1", "HAP_Count": "0", "Met_Count": "4"}}, {"type": "Feature", "geometry": {"type": "Point", "coordinates": [-118.05781, 36.609]}, "properties": {"key": [256], "site_id": ["06-027-0004"], "State_Code": "6", "County_Code": "27", "Street_Address": "501 E. LOCUST ST., LONE PINE", "Count": "2", "Crit_Count": "1", "HAP_Count": "0", "Met_Count": "0"}}, {"type": "Feature", "geometry": {"type": "Point", "coordinates": [-118.04798, 36.60503]}, "properties": {"key": [257], "site_id": ["06-027-0019"], "State_Code": "6", "County_Code": "27", "Street_Address": "LONE PINE SEWER PONDS", "Count": "3", "Crit_Count": "0", "HAP_Count": "0", "Met_Count": "3"}}, {"type": "Feature", "geometry": {"type": "Point", "coordinates": [-117.755, 36.06889]}, "properties": {"key": [258], "site_id": ["06-027-0020"], "State_Code": "6", "County_Code": "27", "Street_Address": "COSO GATE", "Count": "5", "Crit_Count": "0", "HAP_Count": "0", "Met_Count": "4"}}, {"type": "Feature", "geometry": {"type": "Point", "coordinates": [-117.993, 36.26754]}, "properties": {"key": [259], "site_id": ["06-027-0021"], "State_Code": "6", "County_Code": "27", "Street_Address": "131 WALKER CREEK RD. - 1 MILE E OF OLANCHA", "Count": "7", "Crit_Count": "1", "HAP_Count": "0", "Met_Count": "5"}}, {"type": "Feature", "geometry": {"type": "Point", "coordinates": [-117.89761, 36.36632]}, "properties": {"key": [260], "site_id": ["06-027-0025"], "State_Code": "6", "County_Code": "27", "Street_Address": "SHELL CUT - HIGHWAY 190 - MIDWAY BETWEEN DIRTY SOX AND FLAT ROCK", "Count": "6", "Crit_Count": "1", "HAP_Count": "0", "Met_Count": "4"}}, {"type": "Feature", "geometry": {"type": "Point", "coordinates": [-118.01068, 36.36193]}, "properties": {"key": [261], "site_id": ["06-027-0026"], "State_Code": "6", "County_Code": "27", "Street_Address": "US HWY 395 - Ash Point at Owens Lake west shore, 17 miles south of Lone Pine", "Count": "6", "Crit_Count": "1", "HAP_Count": "0", "Met_Count": "4"}}, {"type": "Feature", "geometry": {"type": "Point", "coordinates": [-117.94183, 36.54314]}, "properties": {"key": [262], "site_id": ["06-027-0028"], "State_Code": "6", "County_Code": "27", "Street_Address": "Lizard Tail - NE Shoreline Owens Lake", "Count": "5", "Crit_Count": "1", "HAP_Count": "0", "Met_Count": "3"}}, {"type": "Feature", "geometry": {"type": "Point", "coordinates": [-116.84778, 36.50861]}, "properties": {"key": [263], "site_id": ["06-027-0101"], "State_Code": "6", "County_Code": "27", "Street_Address": "DEATH VALLEY NM, DEATH VALLEY, CA", "Count": "70", "Crit_Count": "2", "HAP_Count": "8", "Met_Count": "7"}}, {"type": "Feature", "geometry": {"type": "Point", "coordinates": [-117.94393, 36.0494]}, "properties": {"key": [264], "site_id": ["06-027-1001"], "State_Code": "6", "County_Code": "27", "Street_Address": "REST AREA ON HIWY 395, COSO JUNCTION", "Count": "8", "Crit_Count": "1", "HAP_Count": "0", "Met_Count": "5"}}, {"type": "Feature", "geometry": {"type": "Point", "coordinates": [-117.87104, 36.48782]}, "properties": {"key": [265], "site_id": ["06-027-1003"], "State_Code": "6", "County_Code": "27", "Street_Address": "190 CERRO GORDO ROAD, KEELER", "Count": "16", "Crit_Count": "2", "HAP_Count": "0", "Met_Count": "6"}}, {"type": "Feature", "geometry": {"type": "Point", "coordinates": [-118.04917, 36.59556]}, "properties": {"key": [266], "site_id": ["06-027-1018"], "State_Code": "6", "County_Code": "27", "Street_Address": "1101 E-SHA LANE", "Count": "13", "Crit_Count": "1", "HAP_Count": "0", "Met_Count": "11"}}, {"type": "Feature", "geometry": {"type": "Point", "coordinates": [-118.41654, 37.36219]}, "properties": {"key": [267], "site_id": ["06-027-1023"], "State_Code": "6", "County_Code": "27", "Street_Address": "50 TU SU LANE", "Count": "12", "Crit_Count": "1", "HAP_Count": "0", "Met_Count": "10"}}, {"type": "Feature", "geometry": {"type": "Point", "coordinates": [-118.22575, 36.835]}, "properties": {"key": [268], "site_id": ["06-027-1028"], "State_Code": "6", "County_Code": "27", "Street_Address": "789 N. WILLOW STREET, INDEPENDENCE", "Count": "12", "Crit_Count": "1", "HAP_Count": "0", "Met_Count": "11"}}, {"type": "Feature", "geometry": {"type": "Point", "coordinates": [-118.85204, 35.34609]}, "properties": {"key": [269], "site_id": ["06-029-0007"], "State_Code": "6", "County_Code": "29", "Street_Address": "JOHNSON FARM, EDISON, CA. 93320", "Count": "7", "Crit_Count": "2", "HAP_Count": "0", "Met_Count": "3"}}, {"type": "Feature", "geometry": {"type": "Point", "coordinates": [-119.40389, 35.05444]}, "properties": {"key": [270], "site_id": ["06-029-0008"], "State_Code": "6", "County_Code": "29", "Street_Address": "SCHOOL-755 STANISLAUS ST, MARICOPA", "Count": "7", "Crit_Count": "1", "HAP_Count": "0", "Met_Count": "6"}}, {"type": "Feature", "geometry": {"type": "Point", "coordinates": [-118.14729, 35.05055]}, "properties": {"key": [271], "site_id": ["06-029-0011"], "State_Code": "6", "County_Code": "29", "Street_Address": " 923 POOLE STREET, MOJAVE, CA 93501", "Count": "16", "Crit_Count": "2", "HAP_Count": "0", "Met_Count": "6"}}, {"type": "Feature", "geometry": {"type": "Point", "coordinates": [-119.04121, 35.35609]}, "properties": {"key": [272], "site_id": ["06-029-0014"], "State_Code": "6", "County_Code": "29", "Street_Address": "5558 CALIFORNIA AVE, BAKERSFIELD", "Count": "132", "Crit_Count": "5", "HAP_Count": "41", "Met_Count": "8"}}, {"type": "Feature", "geometry": {"type": "Point", "coordinates": [-117.67296, 35.62109]}, "properties": {"key": [273], "site_id": ["06-029-0015"], "State_Code": "6", "County_Code": "29", "Street_Address": "100 WEST CALIFORNIA AVE, RIDGECREST, CA", "Count": "12", "Crit_Count": "2", "HAP_Count": "0", "Met_Count": "2"}}, {"type": "Feature", "geometry": {"type": "Point", "coordinates": [-118.99917, 35.32293]}, "properties": {"key": [274], "site_id": ["06-029-0016"], "State_Code": "6", "County_Code": "29", "Street_Address": "410 E. PLANZ RD. BAKERSFIELD, CA  93307", "Count": "10", "Crit_Count": "1", "HAP_Count": "0", "Met_Count": "2"}}, {"type": "Feature", "geometry": {"type": "Point", "coordinates": [-118.13931, 35.72778]}, "properties": {"key": [275], "site_id": ["06-029-0017"], "State_Code": "6", "County_Code": "29", "Street_Address": "3147 Highway 178, Canebrake", "Count": "2", "Crit_Count": "1", "HAP_Count": "0", "Met_Count": "0"}}, {"type": "Feature", "geometry": {"type": "Point", "coordinates": [-119.01677, 35.43887]}, "properties": {"key": [276], "site_id": ["06-029-0232"], "State_Code": "6", "County_Code": "29", "Street_Address": "3311 MANOR ST., OILDALE", "Count": "11", "Crit_Count": "2", "HAP_Count": "0", "Met_Count": "3"}}, {"type": "Feature", "geometry": {"type": "Point", "coordinates": [-118.86059, 34.84157]}, "properties": {"key": [277], "site_id": ["06-029-2009"], "State_Code": "6", "County_Code": "29", "Street_Address": "1277 Beartrap Road Lebec, CA 93243", "Count": "7", "Crit_Count": "0", "HAP_Count": "0", "Met_Count": "6"}}, {"type": "Feature", "geometry": {"type": "Point", "coordinates": [-119.00097, 35.3313]}, "properties": {"key": [278], "site_id": ["06-029-2012"], "State_Code": "6", "County_Code": "29", "Street_Address": "2000 South Union Ave. Bakersfield CA  93307", "Count": "77", "Crit_Count": "4", "HAP_Count": "11", "Met_Count": "8"}}, {"type": "Feature", "geometry": {"type": "Point", "coordinates": [-118.78444, 35.20833]}, "properties": {"key": [279], "site_id": ["06-029-5001"], "State_Code": "6", "County_Code": "29", "Street_Address": "20401 BEAR MTN BLVD, ARVIN, CA., 93203", "Count": "85", "Crit_Count": "0", "HAP_Count": "10", "Met_Count": "8"}}, {"type": "Feature", "geometry": {"type": "Point", "coordinates": [-118.78942, 35.23668]}, "properties": {"key": [280], "site_id": ["06-029-5002"], "State_Code": "6", "County_Code": "29", "Street_Address": "19405 BUENA VISTA BLVD, ARVIN, CA., 93203", "Count": "4", "Crit_Count": "1", "HAP_Count": "0", "Met_Count": "3"}}, {"type": "Feature", "geometry": {"type": "Point", "coordinates": [-119.27261, 35.50359]}, "properties": {"key": [281], "site_id": ["06-029-6001"], "State_Code": "6", "County_Code": "29", "Street_Address": "548 WALKER ST., SHAFTER, CA., 93263", "Count": "100", "Crit_Count": "2", "HAP_Count": "17", "Met_Count": "8"}}, {"type": "Feature", "geometry": {"type": "Point", "coordinates": [-118.88667, 34.82194]}, "properties": {"key": [282], "site_id": ["06-029-9001"], "State_Code": "6", "County_Code": "29", "Street_Address": "PEACE VALLEY RD/FRAZIER PARK MTN RD, LEBEC", "Count": "53", "Crit_Count": "1", "HAP_Count": "8", "Met_Count": "0"}}, {"type": "Feature", "geometry": {"type": "Point", "coordinates": [-118.87913, 34.82886]}, "properties": {"key": [283], "site_id": ["06-029-9002"], "State_Code": "6", "County_Code": "29", "Street_Address": "PEACE VALLEY ROAD, LEBEC", "Count": "58", "Crit_Count": "0", "HAP_Count": "8", "Met_Count": "1"}}, {"type": "Feature", "geometry": {"type": "Point", "coordinates": [-118.13861, 35.72778]}, "properties": {"key": [284], "site_id": ["06-029-9902"], "State_Code": "6", "County_Code": "29", "Street_Address": "Dome Lands Wilderness", "Count": "37", "Crit_Count": "0", "HAP_Count": "8", "Met_Count": "1"}}, {"type": "Feature", "geometry": {"type": "Point", "coordinates": [-119.56695, 36.10218]}, "properties": {"key": [285], "site_id": ["06-031-0004"], "State_Code": "6", "County_Code": "31", "Street_Address": "1520 PATTERSON AV., CORCORAN", "Count": "20", "Crit_Count": "2", "HAP_Count": "0", "Met_Count": "8"}}, {"type": "Feature", "geometry": {"type": "Point", "coordinates": [-119.76621, 36.23327]}, "properties": {"key": [286], "site_id": ["06-031-0500"], "State_Code": "6", "County_Code": "31", "Street_Address": "17225 Jersey Ave.", "Count": "7", "Crit_Count": "2", "HAP_Count": "0", "Met_Count": "4"}}, {"type": "Feature", "geometry": {"type": "Point", "coordinates": [-119.64457, 36.3144]}, "properties": {"key": [287], "site_id": ["06-031-1004"], "State_Code": "6", "County_Code": "31", "Street_Address": "807 SOUTH IRWIN ST., HANFORD", "Count": "13", "Crit_Count": "4", "HAP_Count": "0", "Met_Count": "6"}}, {"type": "Feature", "geometry": {"type": "Point", "coordinates": [-122.92229, 39.0327]}, "properties": {"key": [288], "site_id": ["06-033-3001"], "State_Code": "6", "County_Code": "33", "Street_Address": "905 LAKEPORT BLVD., LAKEPORT", "Count": "17", "Crit_Count": "2", "HAP_Count": "0", "Met_Count": "5"}}, {"type": "Feature", "geometry": {"type": "Point", "coordinates": [-122.6995, 38.77453]}, "properties": {"key": [289], "site_id": ["06-033-3010"], "State_Code": "6", "County_Code": "33", "Street_Address": "11270 ANDERSON SPRINGS RD., MIDDLETOWN, CA", "Count": "34", "Crit_Count": "0", "HAP_Count": "11", "Met_Count": "4"}}, {"type": "Feature", "geometry": {"type": "Point", "coordinates": [-122.75797, 38.84846]}, "properties": {"key": [290], "site_id": ["06-033-3011"], "State_Code": "6", "County_Code": "33", "Street_Address": "HIGH VALLEY RD, COBB, CA", "Count": "35", "Crit_Count": "0", "HAP_Count": "11", "Met_Count": "5"}}, {"type": "Feature", "geometry": {"type": "Point", "coordinates": [-122.7362, 38.85022]}, "properties": {"key": [291], "site_id": ["06-033-3012"], "State_Code": "6", "County_Code": "33", "Street_Address": "9302 FOX DR.,  COBB, CA", "Count": "5", "Crit_Count": "0", "HAP_Count": "0", "Met_Count": "4"}}, {"type": "Feature", "geometry": {"type": "Point", "coordinates": [-122.74056, 38.85139]}, "properties": {"key": [292], "site_id": ["06-033-3013"], "State_Code": "6", "County_Code": "33", "Street_Address": "15385 TRINITY RD., HOBERGS", "Count": "2", "Crit_Count": "0", "HAP_Count": "0", "Met_Count": "2"}}, {"type": "Feature", "geometry": {"type": "Point", "coordinates": [-117.92391, 34.1365]}, "properties": {"key": [293], "site_id": ["06-037-0002"], "State_Code": "6", "County_Code": "37", "Street_Address": "803 N. LOREN AVE., AZUSA", "Count": "150", "Crit_Count": "6", "HAP_Count": "35", "Met_Count": "11"}}, {"type": "Feature", "geometry": {"type": "Point", "coordinates": [-117.85036, 34.14435]}, "properties": {"key": [294], "site_id": ["06-037-0016"], "State_Code": "6", "County_Code": "37", "Street_Address": "840 LAUREL, GLENDORA", "Count": "13", "Crit_Count": "4", "HAP_Count": "0", "Met_Count": "6"}}, {"type": "Feature", "geometry": {"type": "Point", "coordinates": [-118.0675, 34.07]}, "properties": {"key": [295], "site_id": ["06-037-0018"], "State_Code": "6", "County_Code": "37", "Street_Address": "915 FLAIR DRIVE, EL MONTE, CA", "Count": "7", "Crit_Count": "0", "HAP_Count": "7", "Met_Count": "0"}}, {"type": "Feature", "geometry": {"type": "Point", "coordinates": [-118.45636, 34.05111]}, "properties": {"key": [296], "site_id": ["06-037-0113"], "State_Code": "6", "County_Code": "37", "Street_Address": "VA HOSPITAL, WEST LOS ANGELES", "Count": "12", "Crit_Count": "3", "HAP_Count": "0", "Met_Count": "4"}}, {"type": "Feature", "geometry": {"type": "Point", "coordinates": [-118.31712, 34.17605]}, "properties": {"key": [297], "site_id": ["06-037-1002"], "State_Code": "6", "County_Code": "37", "Street_Address": "228 W. PALM AVE., BURBANK", "Count": "143", "Crit_Count": "7", "HAP_Count": "35", "Met_Count": "11"}}, {"type": "Feature", "geometry": {"type": "Point", "coordinates": [-118.22688, 34.06659]}, "properties": {"key": [298], "site_id": ["06-037-1103"], "State_Code": "6", "County_Code": "37", "Street_Address": "1630 N MAIN ST, LOS ANGELES", "Count": "237", "Crit_Count": "8", "HAP_Count": "80", "Met_Count": "10"}}, {"type": "Feature", "geometry": {"type": "Point", "coordinates": [-118.53276, 34.19925]}, "properties": {"key": [299], "site_id": ["06-037-1201"], "State_Code": "6", "County_Code": "37", "Street_Address": "18330 GAULT ST., RESEDA", "Count": "21", "Crit_Count": "4", "HAP_Count": "0", "Met_Count": "6"}}, {"type": "Feature", "geometry": {"type": "Point", "coordinates": [-118.21071, 33.92899]}, "properties": {"key": [300], "site_id": ["06-037-1301"], "State_Code": "6", "County_Code": "37", "Street_Address": "11220 LONG BEACH BLVD., LYNWOOD", "Count": "12", "Crit_Count": "0", "HAP_Count": "0", "Met_Count": "2"}}, {"type": "Feature", "geometry": {"type": "Point", "coordinates": [-118.205, 33.90139]}, "properties": {"key": [301], "site_id": ["06-037-1302"], "State_Code": "6", "County_Code": "37", "Street_Address": "700 North Bullis Road", "Count": "26", "Crit_Count": "5", "HAP_Count": "1", "Met_Count": "9"}}, {"type": "Feature", "geometry": {"type": "Point", "coordinates": [-118.48757, 34.21793]}, "properties": {"key": [302], "site_id": ["06-037-1402"], "State_Code": "6", "County_Code": "37", "Street_Address": "16345 Raymer (Lot A), Van Nuys, CA 91406-1212", "Count": "1", "Crit_Count": "1", "HAP_Count": "1", "Met_Count": "0"}}, {"type": "Feature", "geometry": {"type": "Point", "coordinates": [-118.05639, 33.955]}, "properties": {"key": [303], "site_id": ["06-037-1403"], "State_Code": "6", "County_Code": "37", "Street_Address": "9440 Ann Street, Santa Fe Springs, CA 90670", "Count": "1", "Crit_Count": "1", "HAP_Count": "1", "Met_Count": "0"}}, {"type": "Feature", "geometry": {"type": "Point", "coordinates": [-117.98167, 34.02611]}, "properties": {"key": [304], "site_id": ["06-037-1404"], "State_Code": "6", "County_Code": "37", "Street_Address": "500 S. 7th Ave. City of Industry, CA 91746", "Count": "1", "Crit_Count": "1", "HAP_Count": "1", "Met_Count": "0"}}, {"type": "Feature", "geometry": {"type": "Point", "coordinates": [-118.19306, 34.00639]}, "properties": {"key": [305], "site_id": ["06-037-1405"], "State_Code": "6", "County_Code": "37", "Street_Address": "4010 E. 26th Street, Vernon, CA 90058", "Count": "1", "Crit_Count": "1", "HAP_Count": "1", "Met_Count": "0"}}, {"type": "Feature", "geometry": {"type": "Point", "coordinates": [-118.19056, 34.00833]}, "properties": {"key": [306], "site_id": ["06-037-1406"], "State_Code": "6", "County_Code": "37", "Street_Address": "Rail Road Yard Washington Blvd., Commerce, CA 90058", "Count": "1", "Crit_Count": "1", "HAP_Count": "1", "Met_Count": "0"}}, {"type": "Feature", "geometry": {"type": "Point", "coordinates": [-118.06056, 34.01407]}, "properties": {"key": [307], "site_id": ["06-037-1601"], "State_Code": "6", "County_Code": "37", "Street_Address": "3713 SAN GABRIEL RIVER PKWY, PICO RIVERA", "Count": "100", "Crit_Count": "0", "HAP_Count": "14", "Met_Count": "5"}}, {"type": "Feature", "geometry": {"type": "Point", "coordinates": [-118.06995, 34.01194]}, "properties": {"key": [308], "site_id": ["06-037-1602"], "State_Code": "6", "County_Code": "37", "Street_Address": "4144 SAN GABRIEL RIVER PKWY, PICO RIVERA", "Count": "95", "Crit_Count": "5", "HAP_Count": "15", "Met_Count": "11"}}, {"type": "Feature", "geometry": {"type": "Point", "coordinates": [-117.7514, 34.06703]}, "properties": {"key": [309], "site_id": ["06-037-1701"], "State_Code": "6", "County_Code": "37", "Street_Address": "924 N. GAREY AVE., POMONA", "Count": "9", "Crit_Count": "3", "HAP_Count": "0", "Met_Count": "4"}}, {"type": "Feature", "geometry": {"type": "Point", "coordinates": [-118.1272, 34.1326]}, "properties": {"key": [310], "site_id": ["06-037-2005"], "State_Code": "6", "County_Code": "37", "Street_Address": "752 S. WILSON AVE., PASADENA", "Count": "21", "Crit_Count": "3", "HAP_Count": "0", "Met_Count": "6"}}, {"type": "Feature", "geometry": {"type": "Point", "coordinates": [-118.18921, 33.82376]}, "properties": {"key": [311], "site_id": ["06-037-4002"], "State_Code": "6", "County_Code": "37", "Street_Address": "3648 N. LONG BEACH BLVD., LONG BEACH", "Count": "35", "Crit_Count": "4", "HAP_Count": "8", "Met_Count": "10"}}, {"type": "Feature", "geometry": {"type": "Point", "coordinates": [-118.17533, 33.79236]}, "properties": {"key": [312], "site_id": ["06-037-4004"], "State_Code": "6", "County_Code": "37", "Street_Address": "1305 E. PACIFIC COAST HWY., LONG BEACH", "Count": "26", "Crit_Count": "3", "HAP_Count": "1", "Met_Count": "9"}}, {"type": "Feature", "geometry": {"type": "Point", "coordinates": [-118.22, 33.8025]}, "properties": {"key": [313], "site_id": ["06-037-4006"], "State_Code": "6", "County_Code": "37", "Street_Address": "2425 Webster St., Long Beach, CA", "Count": "12", "Crit_Count": "4", "HAP_Count": "0", "Met_Count": "6"}}, {"type": "Feature", "geometry": {"type": "Point", "coordinates": [-118.37026, 33.92288]}, "properties": {"key": [314], "site_id": ["06-037-5001"], "State_Code": "6", "County_Code": "37", "Street_Address": "5234 W. 120TH ST., HAWTHORNE", "Count": "66", "Crit_Count": "0", "HAP_Count": "11", "Met_Count": "0"}}, {"type": "Feature", "geometry": {"type": "Point", "coordinates": [-118.43043, 33.9508]}, "properties": {"key": [315], "site_id": ["06-037-5005"], "State_Code": "6", "County_Code": "37", "Street_Address": "7201 W. WESTCHESTER PARKWAY", "Count": "87", "Crit_Count": "6", "HAP_Count": "13", "Met_Count": "8"}}, {"type": "Feature", "geometry": {"type": "Point", "coordinates": [-118.3658, 33.94156]}, "properties": {"key": [316], "site_id": ["06-037-5501"], "State_Code": "6", "County_Code": "37", "Street_Address": "10417 Felton Ave", "Count": "98", "Crit_Count": "0", "HAP_Count": "71", "Met_Count": "5"}}, {"type": "Feature", "geometry": {"type": "Point", "coordinates": [-118.02784, 34.08723]}, "properties": {"key": [317], "site_id": ["06-037-5502"], "State_Code": "6", "County_Code": "37", "Street_Address": "4434 Santa Anita Ave", "Count": "109", "Crit_Count": "0", "HAP_Count": "82", "Met_Count": "5"}}, {"type": "Feature", "geometry": {"type": "Point", "coordinates": [-118.21674, 34.03168]}, "properties": {"key": [318], "site_id": ["06-037-5503"], "State_Code": "6", "County_Code": "37", "Street_Address": "1020 S. Soto Street", "Count": "98", "Crit_Count": "0", "HAP_Count": "71", "Met_Count": "5"}}, {"type": "Feature", "geometry": {"type": "Point", "coordinates": [-118.53361, 34.3875]}, "properties": {"key": [319], "site_id": ["06-037-6002"], "State_Code": "6", "County_Code": "37", "Street_Address": "SAN FERNANDO RD, SANTA CLARITA (NEWHALL)", "Count": "64", "Crit_Count": "0", "HAP_Count": "13", "Met_Count": "0"}}, {"type": "Feature", "geometry": {"type": "Point", "coordinates": [-118.5284, 34.38344]}, "properties": {"key": [320], "site_id": ["06-037-6012"], "State_Code": "6", "County_Code": "37", "Street_Address": "22224 PLACERITA CANYON RD, SANTA CLARITA", "Count": "86", "Crit_Count": "4", "HAP_Count": "13", "Met_Count": "9"}}, {"type": "Feature", "geometry": {"type": "Point", "coordinates": [-117.69211, 34.37892]}, "properties": {"key": [321], "site_id": ["06-037-9000"], "State_Code": "6", "County_Code": "37", "Street_Address": "Wrightwood, CA", "Count": "46", "Crit_Count": "0", "HAP_Count": "8", "Met_Count": "0"}}, {"type": "Feature", "geometry": {"type": "Point", "coordinates": [-118.13146, 34.67139]}, "properties": {"key": [322], "site_id": ["06-037-9033"], "State_Code": "6", "County_Code": "37", "Street_Address": "43301 DIVISION ST., LANCASTER, CA", "Count": "87", "Crit_Count": "5", "HAP_Count": "13", "Met_Count": "9"}}, {"type": "Feature", "geometry": {"type": "Point", "coordinates": [-118.88389, 34.81306]}, "properties": {"key": [323], "site_id": ["06-037-9034"], "State_Code": "6", "County_Code": "37", "Street_Address": "PEACE VALLEY ROAD, LEBEC", "Count": "63", "Crit_Count": "1", "HAP_Count": "8", "Met_Count": "1"}}, {"type": "Feature", "geometry": {"type": "Point", "coordinates": [-118.02909, 34.29691]}, "properties": {"key": [324], "site_id": ["06-037-9934"], "State_Code": "6", "County_Code": "37", "Street_Address": "San Gabriel", "Count": "36", "Crit_Count": "0", "HAP_Count": "8", "Met_Count": "1"}}, {"type": "Feature", "geometry": {"type": "Point", "coordinates": [-120.01, 36.86667]},